{"index" :  {"_id": "1"}}
{"id": "1", "host_type": "super", "title": "Bright & Airy Queen Anne Apartment", "city": "Seattle", "state": "WA", "latitude": "47.63912312", "longitude": "-122.3656665", "reservable": "1", "price": "150", "place_type": "Entire home/apt", "review_average": "4.5", "number_of_reviews": "43", "saved": "0"}
{"index" :  {"_id": "2"}}
{"id": "2", "host_type": "super", "title": "Tiny Garden cabin on Queen Anne  ", "city": "Seattle", "state": "WA", "latitude": "47.64016054", "longitude": "-122.375856", "reservable": "1", "price": "60", "place_type": "Private room", "review_average": "1.43", "number_of_reviews": "173", "saved": "0"}
{"index" :  {"_id": "3"}}
{"id": "3", "host_type": "super", "title": "Airy + Bright Queen Anne Apartment", "city": "Seattle", "state": "WA", "latitude": "47.63749172", "longitude": "-122.3668886", "reservable": "1", "price": "150", "place_type": "Entire home/apt", "review_average": "3.34", "number_of_reviews": "32", "saved": "0"}
{"index" :  {"_id": "4"}}
{"id": "4", "host_type": "normal", "title": "Stunning 6 bd in THE BEST Location!", "city": "Seattle", "state": "WA", "latitude": "47.63920266", "longitude": "-122.3658627", "reservable": "1", "price": "461", "place_type": "Entire home/apt", "review_average": "2.15", "number_of_reviews": "18", "saved": "1"}
{"index" :  {"_id": "5"}}
{"id": "5", "host_type": "normal", "title": "Park Life in Lower Queen Anne", "city": "Seattle", "state": "WA", "latitude": "47.62620037", "longitude": "-122.3666019", "reservable": "1", "price": "66", "place_type": "Private room", "review_average": "1.24", "number_of_reviews": "84", "saved": "0"}
{"index" :  {"_id": "6"}}
{"id": "6", "host_type": "super", "title": "Micro Gypsy Wagon on Queen Anne", "city": "Seattle", "state": "WA", "latitude": "47.63926602", "longitude": "-122.3747258", "reservable": "1", "price": "45", "place_type": "Private room", "review_average": "3.38", "number_of_reviews": "80", "saved": "0"}
{"index" :  {"_id": "7"}}
{"id": "7", "host_type": "normal", "title": "Queen Anne 3 bed near everything", "city": "Seattle", "state": "WA", "latitude": "47.63508504", "longitude": "-122.3644435", "reservable": "1", "price": "325", "place_type": "Entire home/apt", "review_average": "0.06", "number_of_reviews": "68", "saved": "0"}
{"index" :  {"_id": "8"}}
{"id": "8", "host_type": "normal", "title": "Walker's Dream on Queen Anne Hill", "city": "Seattle", "state": "WA", "latitude": "47.63800138", "longitude": "-122.3610048", "reservable": "1", "price": "110", "place_type": "Entire home/apt", "review_average": "2.69", "number_of_reviews": "71", "saved": "1"}
{"index" :  {"_id": "9"}}
{"id": "9", "host_type": "normal", "title": "Located in the heart of Queen Anne", "city": "Seattle", "state": "WA", "latitude": "47.63751735", "longitude": "-122.3608117", "reservable": "1", "price": "145", "place_type": "Entire home/apt", "review_average": "2.01", "number_of_reviews": "44", "saved": "0"}
{"index" :  {"_id": "10"}}
{"id": "10", "host_type": "super", "title": "Suite Garage on Queen Anne", "city": "Seattle", "state": "WA", "latitude": "47.64105215", "longitude": "-122.3750817", "reservable": "1", "price": "90", "place_type": "Entire home/apt", "review_average": "1.41", "number_of_reviews": "109", "saved": "0"}
{"index" :  {"_id": "11"}}
{"id": "11", "host_type": "super", "title": "Hand crafted Gypsy Wagon with heart", "city": "Seattle", "state": "WA", "latitude": "47.64152493", "longitude": "-122.3761504", "reservable": "1", "price": "60", "place_type": "Private room", "review_average": "0.51", "number_of_reviews": "191", "saved": "0"}
{"index" :  {"_id": "12"}}
{"id": "12", "host_type": "super", "title": "Plum Modern - 5 bdrm Tranquility", "city": "Seattle", "state": "WA", "latitude": "47.67362807", "longitude": "-122.389302", "reservable": "1", "price": "465", "place_type": "Entire home/apt", "review_average": "0.25", "number_of_reviews": "5", "saved": "1"}
{"index" :  {"_id": "13"}}
{"id": "13", "host_type": "normal", "title": "1BR-Ultra Hip Ballard-Walk to Bars!", "city": "Seattle", "state": "WA", "latitude": "47.66845996", "longitude": "-122.379516", "reservable": "1", "price": "175", "place_type": "Entire home/apt", "review_average": "2.73", "number_of_reviews": "5", "saved": "0"}
{"index" :  {"_id": "14"}}
{"id": "14", "host_type": "normal", "title": "**Be in the MIDDLE OF EVERYTHING!*", "city": "Seattle", "state": "WA", "latitude": "47.667933", "longitude": "-122.3786525", "reservable": "1", "price": "47", "place_type": "Private room", "review_average": "1.1", "number_of_reviews": "23", "saved": "0"}
{"index" :  {"_id": "15"}}
{"id": "15", "host_type": "normal", "title": "Cozy Private Room, Bath and Patio", "city": "Seattle", "state": "WA", "latitude": "47.67011138", "longitude": "-122.3938693", "reservable": "1", "price": "55", "place_type": "Private room", "review_average": "0.81", "number_of_reviews": "86", "saved": "0"}
{"index" :  {"_id": "16"}}
{"id": "16", "host_type": "super", "title": "Plum Apartment", "city": "Seattle", "state": "WA", "latitude": "47.67175997", "longitude": "-122.3900201", "reservable": "1", "price": "134", "place_type": "Entire home/apt", "review_average": "4.07", "number_of_reviews": "40", "saved": "1"}
{"index" :  {"_id": "17"}}
{"id": "17", "host_type": "super", "title": "Condo in Hip Ballard WALK", "city": "Seattle", "state": "WA", "latitude": "47.67228446", "longitude": "-122.3823135", "reservable": "1", "price": "145", "place_type": "Entire home/apt", "review_average": "4.04", "number_of_reviews": "14", "saved": "0"}
{"index" :  {"_id": "18"}}
{"id": "18", "host_type": "super", "title": " Ballard Garden Apartment", "city": "Seattle", "state": "WA", "latitude": "47.67260212", "longitude": "-122.3884415", "reservable": "1", "price": "120", "place_type": "Entire home/apt", "review_average": "2.71", "number_of_reviews": "25", "saved": "0"}
{"index" :  {"_id": "19"}}
{"id": "19", "host_type": "normal", "title": "Charming 1919 cottage in Ballard", "city": "Seattle", "state": "WA", "latitude": "47.67155977", "longitude": "-122.382704", "reservable": "1", "price": "115", "place_type": "Entire home/apt", "review_average": "1.48", "number_of_reviews": "44", "saved": "0"}
{"index" :  {"_id": "20"}}
{"id": "20", "host_type": "super", "title": "Private room blocks to DT Ballard", "city": "Seattle", "state": "WA", "latitude": "47.66939869", "longitude": "-122.389254", "reservable": "1", "price": "80", "place_type": "Private room", "review_average": "1.56", "number_of_reviews": "56", "saved": "1"}
{"index" :  {"_id": "21"}}
{"id": "21", "host_type": "super", "title": "Odd Lodging in the Heart of Ballard", "city": "Seattle", "state": "WA", "latitude": "47.66746398", "longitude": "-122.3782553", "reservable": "1", "price": "75", "place_type": "Entire home/apt", "review_average": "4.54", "number_of_reviews": "79", "saved": "0"}
{"index" :  {"_id": "22"}}
{"id": "22", "host_type": "super", "title": "Cozy Room in Heart of Ballard", "city": "Seattle", "state": "WA", "latitude": "47.67181197", "longitude": "-122.3889813", "reservable": "1", "price": "57", "place_type": "Private room", "review_average": "0.45", "number_of_reviews": "50", "saved": "0"}
{"index" :  {"_id": "23"}}
{"id": "23", "host_type": "normal", "title": " Sunny Ballard Digs", "city": "Seattle", "state": "WA", "latitude": "47.67053238", "longitude": "-122.3653185", "reservable": "1", "price": "99", "place_type": "Entire home/apt", "review_average": "1.13", "number_of_reviews": "38", "saved": "0"}
{"index" :  {"_id": "24"}}
{"id": "24", "host_type": "super", "title": "A Friendly Place in Ballard", "city": "Seattle", "state": "WA", "latitude": "47.67269174", "longitude": "-122.3735586", "reservable": "1", "price": "70", "place_type": "Private room", "review_average": "4.43", "number_of_reviews": "19", "saved": "1"}
{"index" :  {"_id": "25"}}
{"id": "25", "host_type": "normal", "title": "Gorgeous Townhome Private Room", "city": "Seattle", "state": "WA", "latitude": "47.67388232", "longitude": "-122.3746263", "reservable": "1", "price": "35", "place_type": "Private room", "review_average": "4.62", "number_of_reviews": "7", "saved": "0"}
{"index" :  {"_id": "26"}}
{"id": "26", "host_type": "normal", "title": "Gorgeous Townhome Main Bdrm+Balcony", "city": "Seattle", "state": "WA", "latitude": "47.67228263", "longitude": "-122.3731616", "reservable": "1", "price": "45", "place_type": "Private room", "review_average": "0.86", "number_of_reviews": "2", "saved": "0"}
{"index" :  {"_id": "27"}}
{"id": "27", "host_type": "super", "title": "Ballard 1903 Modern Cottage", "city": "Seattle", "state": "WA", "latitude": "47.66454921", "longitude": "-122.3682089", "reservable": "1", "price": "149", "place_type": "Entire home/apt", "review_average": "0.92", "number_of_reviews": "85", "saved": "0"}
{"index" :  {"_id": "28"}}
{"id": "28", "host_type": "normal", "title": "Townhome Top Floor 2 Bedrms+Balcony", "city": "Seattle", "state": "WA", "latitude": "47.67358404", "longitude": "-122.3738143", "reservable": "1", "price": "80", "place_type": "Private room", "review_average": "1.88", "number_of_reviews": "2", "saved": "1"}
{"index" :  {"_id": "29"}}
{"id": "29", "host_type": "normal", "title": "Vintage Ballard Charm", "city": "Seattle", "state": "WA", "latitude": "47.66934139", "longitude": "-122.3662641", "reservable": "1", "price": "99", "place_type": "Entire home/apt", "review_average": "1.46", "number_of_reviews": "111", "saved": "0"}
{"index" :  {"_id": "30"}}
{"id": "30", "host_type": "normal", "title": "Private garden room in hip Ballard", "city": "Seattle", "state": "WA", "latitude": "47.67431327", "longitude": "-122.3679688", "reservable": "1", "price": "75", "place_type": "Private room", "review_average": "4.78", "number_of_reviews": "9", "saved": "0"}
{"index" :  {"_id": "31"}}
{"id": "31", "host_type": "normal", "title": "Crow's Nest Cottage", "city": "Seattle", "state": "WA", "latitude": "47.66365131", "longitude": "-122.3620818", "reservable": "1", "price": "150", "place_type": "Entire home/apt", "review_average": "3.41", "number_of_reviews": "1", "saved": "0"}
{"index" :  {"_id": "32"}}
{"id": "32", "host_type": "normal", "title": "Master Suite - Private Entrance", "city": "Seattle", "state": "WA", "latitude": "47.64359973", "longitude": "-122.3446299", "reservable": "1", "price": "115", "place_type": "Private room", "review_average": "3.96", "number_of_reviews": "13", "saved": "1"}
{"index" :  {"_id": "33"}}
{"id": "33", "host_type": "super", "title": "Hilltop House - 3 Bd Great Location", "city": "Seattle", "state": "WA", "latitude": "47.63152636", "longitude": "-122.3562828", "reservable": "1", "price": "250", "place_type": "Entire home/apt", "review_average": "4.31", "number_of_reviews": "98", "saved": "0"}
{"index" :  {"_id": "34"}}
{"id": "34", "host_type": "super", "title": "Seattle + free parking + quiet", "city": "Seattle", "state": "WA", "latitude": "47.63544456", "longitude": "-122.3555166", "reservable": "1", "price": "98", "place_type": "Entire home/apt", "review_average": "3.67", "number_of_reviews": "139", "saved": "0"}
{"index" :  {"_id": "35"}}
{"id": "35", "host_type": "normal", "title": "Quiet apartment Queen Anne", "city": "Seattle", "state": "WA", "latitude": "47.63507293", "longitude": "-122.3545941", "reservable": "1", "price": "150", "place_type": "Entire home/apt", "review_average": "1.06", "number_of_reviews": "5", "saved": "0"}
{"index" :  {"_id": "36"}}
{"id": "36", "host_type": "super", "title": "View, Location and Plenty of Space", "city": "Seattle", "state": "WA", "latitude": "47.6305064", "longitude": "-122.3450221", "reservable": "1", "price": "149", "place_type": "Entire home/apt", "review_average": "4.08", "number_of_reviews": "31", "saved": "1"}
{"index" :  {"_id": "37"}}
{"id": "37", "host_type": "super", "title": "The Gallery - Lake Union View Room", "city": "Seattle", "state": "WA", "latitude": "47.64011972", "longitude": "-122.3445298", "reservable": "1", "price": "90", "place_type": "Private room", "review_average": "4.97", "number_of_reviews": "36", "saved": "0"}
{"index" :  {"_id": "38"}}
{"id": "38", "host_type": "super", "title": "Queen Anne Mother-In-Law 1br/1bath", "city": "Seattle", "state": "WA", "latitude": "47.63192143", "longitude": "-122.3485203", "reservable": "1", "price": "110", "place_type": "Entire home/apt", "review_average": "4.89", "number_of_reviews": "61", "saved": "0"}
{"index" :  {"_id": "39"}}
{"id": "39", "host_type": "normal", "title": "Modern Seattle Apartment with gym!", "city": "Seattle", "state": "WA", "latitude": "47.64154276", "longitude": "-122.3446612", "reservable": "1", "price": "90", "place_type": "Entire home/apt", "review_average": "4.78", "number_of_reviews": "50", "saved": "0"}
{"index" :  {"_id": "40"}}
{"id": "40", "host_type": "super", "title": "Le Penthouse", "city": "Seattle", "state": "WA", "latitude": "47.64236917", "longitude": "-122.3440864", "reservable": "1", "price": "165", "place_type": "Entire home/apt", "review_average": "4.86", "number_of_reviews": "26", "saved": "1"}
{"index" :  {"_id": "41"}}
{"id": "41", "host_type": "normal", "title": "Classy Seattle Apartment and gym", "city": "Seattle", "state": "WA", "latitude": "47.64103958", "longitude": "-122.3444038", "reservable": "1", "price": "103", "place_type": "Entire home/apt", "review_average": "0.9", "number_of_reviews": "49", "saved": "0"}
{"index" :  {"_id": "42"}}
{"id": "42", "host_type": "normal", "title": "Cute & Tidy by Seattle Center!", "city": "Seattle", "state": "WA", "latitude": "47.63111242", "longitude": "-122.3439642", "reservable": "1", "price": "120", "place_type": "Entire home/apt", "review_average": "3.04", "number_of_reviews": "59", "saved": "0"}
{"index" :  {"_id": "43"}}
{"id": "43", "host_type": "normal", "title": "Designer 2 Bdrm Fremont/Wallingford", "city": "Seattle", "state": "WA", "latitude": "47.66144065", "longitude": "-122.343953", "reservable": "1", "price": "149", "place_type": "Entire home/apt", "review_average": "2.06", "number_of_reviews": "11", "saved": "0"}
{"index" :  {"_id": "44"}}
{"id": "44", "host_type": "normal", "title": "Wallingford Private 1BD Apartment", "city": "Seattle", "state": "WA", "latitude": "47.65317216", "longitude": "-122.3372994", "reservable": "1", "price": "95", "place_type": "Entire home/apt", "review_average": "4.24", "number_of_reviews": "79", "saved": "1"}
{"index" :  {"_id": "45"}}
{"id": "45", "host_type": "super", "title": "Sunny Bedroom w/View: Wallingford", "city": "Seattle", "state": "WA", "latitude": "47.65389856", "longitude": "-122.3380692", "reservable": "1", "price": "105", "place_type": "Private room", "review_average": "3.24", "number_of_reviews": "13", "saved": "0"}
{"index" :  {"_id": "46"}}
{"id": "46", "host_type": "super", "title": "GreenLake - Modern and Convenient", "city": "Seattle", "state": "WA", "latitude": "47.67150263", "longitude": "-122.3278906", "reservable": "1", "price": "130", "place_type": "Entire home/apt", "review_average": "1.85", "number_of_reviews": "14", "saved": "0"}
{"index" :  {"_id": "47"}}
{"id": "47", "host_type": "normal", "title": "Chic In City  Basement Apartment", "city": "Seattle", "state": "WA", "latitude": "47.66546743", "longitude": "-122.3235737", "reservable": "1", "price": "110", "place_type": "Entire home/apt", "review_average": "0.13", "number_of_reviews": "27", "saved": "0"}
{"index" :  {"_id": "48"}}
{"id": "48", "host_type": "normal", "title": "Charming Wallingford Apartment", "city": "Seattle", "state": "WA", "latitude": "47.65588494", "longitude": "-122.332136", "reservable": "1", "price": "110", "place_type": "Entire home/apt", "review_average": "1.25", "number_of_reviews": "97", "saved": "1"}
{"index" :  {"_id": "49"}}
{"id": "49", "host_type": "normal", "title": "Cozy 1BD Apartment in Wallingford.", "city": "Seattle", "state": "WA", "latitude": "47.65163619", "longitude": "-122.3386218", "reservable": "1", "price": "104", "place_type": "Entire home/apt", "review_average": "1.08", "number_of_reviews": "15", "saved": "0"}
{"index" :  {"_id": "50"}}
{"id": "50", "host_type": "super", "title": "Contemporary 2 Bedroom Apartment", "city": "Seattle", "state": "WA", "latitude": "47.66585564", "longitude": "-122.3226907", "reservable": "1", "price": "135", "place_type": "Entire home/apt", "review_average": "2.11", "number_of_reviews": "71", "saved": "0"}
{"index" :  {"_id": "51"}}
{"id": "51", "host_type": "normal", "title": "Lake Union Hacker House - 3FL 4p 2U", "city": "Seattle", "state": "WA", "latitude": "47.65097251", "longitude": "-122.3308842", "reservable": "1", "price": "40", "place_type": "Shared room", "review_average": "4.02", "number_of_reviews": "7", "saved": "0"}
{"index" :  {"_id": "52"}}
{"id": "52", "host_type": "normal", "title": "Lake Union Hacker House - 2FL 4p 2U", "city": "Seattle", "state": "WA", "latitude": "47.65002387", "longitude": "-122.3328031", "reservable": "1", "price": "40", "place_type": "Shared room", "review_average": "2.89", "number_of_reviews": "1", "saved": "1"}
{"index" :  {"_id": "53"}}
{"id": "53", "host_type": "normal", "title": "Lake Union Hacker House - 2FL 4p 1U", "city": "Seattle", "state": "WA", "latitude": "47.65021119", "longitude": "-122.3320348", "reservable": "1", "price": "40", "place_type": "Shared room", "review_average": "4.36", "number_of_reviews": "6", "saved": "0"}
{"index" :  {"_id": "54"}}
{"id": "54", "host_type": "normal", "title": "Family-Ready Craftsman Home", "city": "Seattle", "state": "WA", "latitude": "47.65767236", "longitude": "-122.3258483", "reservable": "1", "price": "575", "place_type": "Entire home/apt", "review_average": "4.91", "number_of_reviews": "5", "saved": "0"}
{"index" :  {"_id": "55"}}
{"id": "55", "host_type": "normal", "title": "Lake Union Hacker House - 3FL 4p 1U", "city": "Seattle", "state": "WA", "latitude": "47.65020661", "longitude": "-122.3311043", "reservable": "1", "price": "40", "place_type": "Shared room", "review_average": "0.63", "number_of_reviews": "4", "saved": "0"}
{"index" :  {"_id": "56"}}
{"id": "56", "host_type": "normal", "title": "Wallingford Terrace Sky", "city": "Seattle", "state": "WA", "latitude": "47.65372", "longitude": "-122.3383883", "reservable": "1", "price": "70", "place_type": "Entire home/apt", "review_average": "2.32", "number_of_reviews": "12", "saved": "1"}
{"index" :  {"_id": "57"}}
{"id": "57", "host_type": "super", "title": "Sunny Corner Apartment Wallingford", "city": "Seattle", "state": "WA", "latitude": "47.6593428", "longitude": "-122.3319395", "reservable": "1", "price": "110", "place_type": "Entire home/apt", "review_average": "2.06", "number_of_reviews": "25", "saved": "0"}
{"index" :  {"_id": "58"}}
{"id": "58", "host_type": "normal", "title": "Lake Union Hacker House - 1FL 4p 2U", "city": "Seattle", "state": "WA", "latitude": "47.65094245", "longitude": "-122.3325889", "reservable": "1", "price": "40", "place_type": "Shared room", "review_average": "3.41", "number_of_reviews": "6", "saved": "0"}
{"index" :  {"_id": "59"}}
{"id": "59", "host_type": "normal", "title": "Walkable bungalow with private yard", "city": "Seattle", "state": "WA", "latitude": "47.65355382", "longitude": "-122.3289685", "reservable": "1", "price": "215", "place_type": "Entire home/apt", "review_average": "2.07", "number_of_reviews": "5", "saved": "0"}
{"index" :  {"_id": "60"}}
{"id": "60", "host_type": "normal", "title": "Bright, Modern, Seattle Classic.", "city": "Seattle", "state": "WA", "latitude": "47.66432019", "longitude": "-122.3291753", "reservable": "1", "price": "130", "place_type": "Entire home/apt", "review_average": "2.02", "number_of_reviews": "2", "saved": "1"}
{"index" :  {"_id": "61"}}
{"id": "61", "host_type": "normal", "title": "Lake Union Hacker House - 3FL 4p 1L", "city": "Seattle", "state": "WA", "latitude": "47.65084966", "longitude": "-122.3329107", "reservable": "1", "price": "40", "place_type": "Shared room", "review_average": "3.41", "number_of_reviews": "5", "saved": "0"}
{"index" :  {"_id": "62"}}
{"id": "62", "host_type": "normal", "title": "Lake Union Hacker House - 1FL 4p 1L", "city": "Seattle", "state": "WA", "latitude": "47.64989806", "longitude": "-122.3312562", "reservable": "1", "price": "40", "place_type": "Shared room", "review_average": "1.1", "number_of_reviews": "7", "saved": "0"}
{"index" :  {"_id": "63"}}
{"id": "63", "host_type": "super", "title": "Mid-century Duplex in Wallingford", "city": "Seattle", "state": "WA", "latitude": "47.65899259", "longitude": "-122.3246634", "reservable": "1", "price": "160", "place_type": "Entire home/apt", "review_average": "3.33", "number_of_reviews": "30", "saved": "0"}
{"index" :  {"_id": "64"}}
{"id": "64", "host_type": "normal", "title": "Quiet Greenlake house, large room", "city": "Seattle", "state": "WA", "latitude": "47.66642488", "longitude": "-122.3349052", "reservable": "1", "price": "55", "place_type": "Private room", "review_average": "1.15", "number_of_reviews": "16", "saved": "1"}
{"index" :  {"_id": "65"}}
{"id": "65", "host_type": "normal", "title": "S.Wallingford, walk to UW, parking", "city": "Seattle", "state": "WA", "latitude": "47.65708273", "longitude": "-122.3265511", "reservable": "1", "price": "95", "place_type": "Entire home/apt", "review_average": "4.42", "number_of_reviews": "17", "saved": "0"}
{"index" :  {"_id": "66"}}
{"id": "66", "host_type": "normal", "title": "Lake Union Hacker House - 2FL 4p 1L", "city": "Seattle", "state": "WA", "latitude": "47.65099402", "longitude": "-122.332345", "reservable": "1", "price": "40", "place_type": "Shared room", "review_average": "2.95", "number_of_reviews": "4", "saved": "0"}
{"index" :  {"_id": "67"}}
{"id": "67", "host_type": "normal", "title": "Clean and Simple Green Lake Studio", "city": "Seattle", "state": "WA", "latitude": "47.66752608", "longitude": "-122.3289111", "reservable": "1", "price": "145", "place_type": "Entire home/apt", "review_average": "0.38", "number_of_reviews": "44", "saved": "0"}
{"index" :  {"_id": "68"}}
{"id": "68", "host_type": "super", "title": "3br/3ba.  modern, roof deck, garage", "city": "Seattle", "state": "WA", "latitude": "47.65410157", "longitude": "-122.3385109", "reservable": "1", "price": "254", "place_type": "Entire home/apt", "review_average": "3.65", "number_of_reviews": "70", "saved": "1"}
{"index" :  {"_id": "69"}}
{"id": "69", "host_type": "normal", "title": " Cozy City Bedroom and Den", "city": "Seattle", "state": "WA", "latitude": "47.65668734", "longitude": "-122.3265699", "reservable": "1", "price": "65", "place_type": "Private room", "review_average": "1.24", "number_of_reviews": "36", "saved": "0"}
{"index" :  {"_id": "70"}}
{"id": "70", "host_type": "super", "title": "Cozy 1BD in Fremont/Wallingford!", "city": "Seattle", "state": "WA", "latitude": "47.66198074", "longitude": "-122.3460958", "reservable": "1", "price": "85", "place_type": "Entire home/apt", "review_average": "4.33", "number_of_reviews": "10", "saved": "0"}
{"index" :  {"_id": "71"}}
{"id": "71", "host_type": "normal", "title": "Lake Union Hacker House - 1FL 2p U", "city": "Seattle", "state": "WA", "latitude": "47.65127573", "longitude": "-122.3327965", "reservable": "1", "price": "40", "place_type": "Shared room", "review_average": "1.17", "number_of_reviews": "3", "saved": "0"}
{"index" :  {"_id": "50"}}
{"id": "72", "host_type": "super", "title": "Relax with a CANNACATION!", "city": "Seattle", "state": "WA", "latitude": "47.66440368", "longitude": "-122.3381274", "reservable": "1", "price": "120", "place_type": "Entire home/apt", "review_average": "3.23", "number_of_reviews": "44", "saved": "1"}
{"index" :  {"_id": "50"}}
{"id": "73", "host_type": "super", "title": "Panoramic Water Views - 6bd/3ba", "city": "Seattle", "state": "WA", "latitude": "47.64923604", "longitude": "-122.3321802", "reservable": "1", "price": "490", "place_type": "Entire home/apt", "review_average": "4.63", "number_of_reviews": "24", "saved": "0"}
{"index" :  {"_id": "50"}}
{"id": "74", "host_type": "normal", "title": "New! Bright Queen Anne Studio", "city": "Seattle", "state": "WA", "latitude": "47.65349156", "longitude": "-122.3697413", "reservable": "1", "price": "80", "place_type": "Entire home/apt", "review_average": "3.55", "number_of_reviews": "21", "saved": "0"}
{"index" :  {"_id": "50"}}
{"id": "75", "host_type": "super", "title": "5 star Luxury + Urban Tranquility", "city": "Seattle", "state": "WA", "latitude": "47.64491325", "longitude": "-122.3734628", "reservable": "1", "price": "145", "place_type": "Entire home/apt", "review_average": "3.33", "number_of_reviews": "23", "saved": "0"}
{"index" :  {"_id": "50"}}
{"id": "76", "host_type": "normal", "title": "Perfect Seattle Room + Bathroom", "city": "Seattle", "state": "WA", "latitude": "47.64519299", "longitude": "-122.3758195", "reservable": "1", "price": "53", "place_type": "Private room", "review_average": "3.95", "number_of_reviews": "27", "saved": "1"}
{"index" :  {"_id": "50"}}
{"id": "77", "host_type": "super", "title": "Comfy Queen Anne Digs", "city": "Seattle", "state": "WA", "latitude": "47.65017304", "longitude": "-122.3676004", "reservable": "1", "price": "89", "place_type": "Entire home/apt", "review_average": "1.3", "number_of_reviews": "52", "saved": "0"}
{"index" :  {"_id": "50"}}
{"id": "78", "host_type": "normal", "title": "Queen Anne, Seattle", "city": "Seattle", "state": "WA", "latitude": "47.64719277", "longitude": "-122.3589062", "reservable": "1", "price": "99", "place_type": "Private room", "review_average": "4.22", "number_of_reviews": "1", "saved": "0"}
{"index" :  {"_id": "50"}}
{"id": "79", "host_type": "super", "title": "Queen Breeze B&B", "city": "Seattle", "state": "WA", "latitude": "47.64314986", "longitude": "-122.3589524", "reservable": "1", "price": "150", "place_type": "Entire home/apt", "review_average": "3.62", "number_of_reviews": "9", "saved": "0"}
{"index" :  {"_id": "50"}}
{"id": "80", "host_type": "normal", "title": "Guest Bedroom near Greenlake", "city": "Seattle", "state": "WA", "latitude": "47.67491184", "longitude": "-122.3252381", "reservable": "1", "price": "55", "place_type": "Private room", "review_average": "4.22", "number_of_reviews": "11", "saved": "1"}
{"id": "81", "host_type": "normal", "title": "Large Luxury Lakeside Seattle Home", "city": "Seattle", "state": "WA", "latitude": "47.68354474", "longitude": "-122.3309111", "reservable": "1", "price": "550", "place_type": "Entire home/apt", "review_average": "1.64", "number_of_reviews": "5", "saved": "0"}
{"id": "82", "host_type": "super", "title": "Craftsman Home 1 block from Lake!", "city": "Seattle", "state": "WA", "latitude": "47.67659659", "longitude": "-122.3307759", "reservable": "1", "price": "79", "place_type": "Entire home/apt", "review_average": "3.2", "number_of_reviews": "92", "saved": "0"}
{"id": "83", "host_type": "super", "title": "Sweet & Cozy Apartment @ Green Lake", "city": "Seattle", "state": "WA", "latitude": "47.68833693", "longitude": "-122.3439074", "reservable": "1", "price": "75", "place_type": "Entire home/apt", "review_average": "4.57", "number_of_reviews": "78", "saved": "0"}
{"id": "84", "host_type": "normal", "title": "3 bdrm Craftsman home on Greenlake", "city": "Seattle", "state": "WA", "latitude": "47.67478054", "longitude": "-122.3246218", "reservable": "1", "price": "225", "place_type": "Entire home/apt", "review_average": "2.49", "number_of_reviews": "2", "saved": "1"}
{"id": "85", "host_type": "normal", "title": "Miradina Al Lago", "city": "Seattle", "state": "WA", "latitude": "47.68472182", "longitude": "-122.3388215", "reservable": "1", "price": "110", "place_type": "Private room", "review_average": "0.81", "number_of_reviews": "60", "saved": "0"}
{"id": "86", "host_type": "normal", "title": "Modern, Sunny 3BR/3B Greenlake Home", "city": "Seattle", "state": "WA", "latitude": "47.68890691", "longitude": "-122.3340131", "reservable": "1", "price": "325", "place_type": "Entire home/apt", "review_average": "3.64", "number_of_reviews": "6", "saved": "0"}
{"id": "87", "host_type": "normal", "title": "70' Yacht  on south Lake  Union", "city": "Seattle", "state": "WA", "latitude": "47.63167352", "longitude": "-122.3405082", "reservable": "1", "price": "775", "place_type": "Entire home/apt", "review_average": "2.55", "number_of_reviews": "9", "saved": "0"}
{"id": "88", "host_type": "normal", "title": "Modern 2BR in Seattle Urban Oasis", "city": "Seattle", "state": "WA", "latitude": "47.61375392", "longitude": "-122.3004575", "reservable": "1", "price": "125", "place_type": "Entire home/apt", "review_average": "1.13", "number_of_reviews": "132", "saved": "1"}
{"id": "89", "host_type": "super", "title": "TL \"Boston\": renovated 2 bed/2 bath", "city": "Seattle", "state": "WA", "latitude": "47.62091627", "longitude": "-122.2979149", "reservable": "1", "price": "250", "place_type": "Entire home/apt", "review_average": "3.17", "number_of_reviews": "7", "saved": "0"}
{"id": "90", "host_type": "normal", "title": "Centrally located private room", "city": "Seattle", "state": "WA", "latitude": "47.60327025", "longitude": "-122.3021606", "reservable": "1", "price": "65", "place_type": "Private room", "review_average": "4.51", "number_of_reviews": "16", "saved": "0"}
{"id": "91", "host_type": "normal", "title": "Centrally located sanctuary", "city": "Seattle", "state": "WA", "latitude": "47.60957776", "longitude": "-122.2988641", "reservable": "1", "price": "160", "place_type": "Entire home/apt", "review_average": "3.34", "number_of_reviews": "15", "saved": "0"}
{"id": "92", "host_type": "normal", "title": "Central District Bungalow ", "city": "Seattle", "state": "WA", "latitude": "47.60526922", "longitude": "-122.2987883", "reservable": "1", "price": "75", "place_type": "Private room", "review_average": "3.12", "number_of_reviews": "6", "saved": "1"}
{"id": "93", "host_type": "normal", "title": "NEW! - Capitol Hill Apt 1100 sq ft", "city": "Seattle", "state": "WA", "latitude": "47.61481815", "longitude": "-122.3003435", "reservable": "1", "price": "99", "place_type": "Entire home/apt", "review_average": "0.09", "number_of_reviews": "66", "saved": "0"}
{"id": "94", "host_type": "normal", "title": "Private Cottage", "city": "Seattle", "state": "WA", "latitude": "47.60846512", "longitude": "-122.2968542", "reservable": "1", "price": "73", "place_type": "Entire home/apt", "review_average": "0.56", "number_of_reviews": "6", "saved": "0"}
{"id": "95", "host_type": "normal", "title": "The Green House in Madison Valley", "city": "Seattle", "state": "WA", "latitude": "47.62013918", "longitude": "-122.2963572", "reservable": "1", "price": "170", "place_type": "Entire home/apt", "review_average": "1.04", "number_of_reviews": "27", "saved": "0"}
{"id": "96", "host_type": "super", "title": "TL \"Vermont\": newly renovated 1 bed", "city": "Seattle", "state": "WA", "latitude": "47.62088255", "longitude": "-122.2977449", "reservable": "1", "price": "150", "place_type": "Entire home/apt", "review_average": "2.84", "number_of_reviews": "10", "saved": "1"}
{"id": "97", "host_type": "normal", "title": "Stylish Central District 2 Bedroom", "city": "Seattle", "state": "WA", "latitude": "47.6101556", "longitude": "-122.3024077", "reservable": "1", "price": "99", "place_type": "Entire home/apt", "review_average": "2.66", "number_of_reviews": "10", "saved": "0"}
{"id": "98", "host_type": "super", "title": "Stylish & Cozy Apt in Urban Seattle", "city": "Seattle", "state": "WA", "latitude": "47.60810282", "longitude": "-122.2970611", "reservable": "1", "price": "120", "place_type": "Entire home/apt", "review_average": "0.68", "number_of_reviews": "27", "saved": "0"}
{"id": "99", "host_type": "super", "title": "The Chalet: Modern 2 bed craftsman", "city": "Seattle", "state": "WA", "latitude": "47.61710244", "longitude": "-122.2965592", "reservable": "1", "price": "150", "place_type": "Entire home/apt", "review_average": "1.7", "number_of_reviews": "4", "saved": "0"}
{"id": "100", "host_type": "super", "title": "Chill Central District 2BR", "city": "Seattle", "state": "WA", "latitude": "47.60907002", "longitude": "-122.2961326", "reservable": "1", "price": "125", "place_type": "Entire home/apt", "review_average": "4.36", "number_of_reviews": "31", "saved": "1"}
{"id": "101", "host_type": "super", "title": "Cozy Private Home near the Lake #1", "city": "Seattle", "state": "WA", "latitude": "47.61632845", "longitude": "-122.2954818", "reservable": "1", "price": "69", "place_type": "Private room", "review_average": "0.42", "number_of_reviews": "29", "saved": "0"}
{"id": "102", "host_type": "super", "title": "Charming Apartment in Madrona", "city": "Seattle", "state": "WA", "latitude": "47.60814372", "longitude": "-122.2919629", "reservable": "1", "price": "75", "place_type": "Entire home/apt", "review_average": "1.92", "number_of_reviews": "63", "saved": "0"}
{"id": "103", "host_type": "normal", "title": "Awesome Studio In Heart of Seattle", "city": "Seattle", "state": "WA", "latitude": "47.61853609", "longitude": "-122.2957238", "reservable": "1", "price": "135", "place_type": "Entire home/apt", "review_average": "2.87", "number_of_reviews": "26", "saved": "0"}
{"id": "104", "host_type": "normal", "title": "Sweet and Cozy Madrona Apartment", "city": "Seattle", "state": "WA", "latitude": "47.61593276", "longitude": "-122.2853141", "reservable": "1", "price": "95", "place_type": "Entire home/apt", "review_average": "0.46", "number_of_reviews": "65", "saved": "1"}
{"id": "105", "host_type": "normal", "title": "Madrona Casita", "city": "Seattle", "state": "WA", "latitude": "47.60808439", "longitude": "-122.2943425", "reservable": "1", "price": "90", "place_type": "Entire home/apt", "review_average": "3.18", "number_of_reviews": "19", "saved": "0"}
{"id": "106", "host_type": "super", "title": "Seattle Above Lake Washington", "city": "Seattle", "state": "WA", "latitude": "47.61553436", "longitude": "-122.2830025", "reservable": "1", "price": "115", "place_type": "Entire home/apt", "review_average": "0.51", "number_of_reviews": "11", "saved": "0"}
{"id": "107", "host_type": "normal", "title": "2 Baths W/D,View walk UW (302)", "city": "Seattle", "state": "WA", "latitude": "47.66415028", "longitude": "-122.3039721", "reservable": "1", "price": "145", "place_type": "Entire home/apt", "review_average": "1.24", "number_of_reviews": "10", "saved": "0"}
{"id": "108", "host_type": "normal", "title": "Amazing English Tudor Home Near UW", "city": "Seattle", "state": "WA", "latitude": "47.66940738", "longitude": "-122.3083482", "reservable": "1", "price": "150", "place_type": "Entire home/apt", "review_average": "4.91", "number_of_reviews": "3", "saved": "1"}
{"id": "109", "host_type": "normal", "title": "Private bath walk UW U Village(202)", "city": "Seattle", "state": "WA", "latitude": "47.66404593", "longitude": "-122.3035321", "reservable": "1", "price": "65", "place_type": "Private room", "review_average": "2.39", "number_of_reviews": "2", "saved": "0"}
{"id": "110", "host_type": "normal", "title": "French Country Room w/Breakfast", "city": "Seattle", "state": "WA", "latitude": "47.66664004", "longitude": "-122.3164824", "reservable": "1", "price": "47", "place_type": "Private room", "review_average": "3.45", "number_of_reviews": "28", "saved": "0"}
{"id": "111", "host_type": "normal", "title": "Sunny rooftop U district studio!", "city": "Seattle", "state": "WA", "latitude": "47.6589087", "longitude": "-122.3147936", "reservable": "1", "price": "88", "place_type": "Entire home/apt", "review_average": "2.21", "number_of_reviews": "18", "saved": "0"}
{"id": "112", "host_type": "normal", "title": "Center UW Comfy Quiet & View (302)", "city": "Seattle", "state": "WA", "latitude": "47.66218141", "longitude": "-122.3133911", "reservable": "1", "price": "98", "place_type": "Entire home/apt", "review_average": "4.97", "number_of_reviews": "9", "saved": "1"}
{"id": "113", "host_type": "normal", "title": "Steps to UW Wood Floor Remodeled 12", "city": "Seattle", "state": "WA", "latitude": "47.65732954", "longitude": "-122.3178094", "reservable": "1", "price": "75", "place_type": "Entire home/apt", "review_average": "4.41", "number_of_reviews": "1", "saved": "0"}
{"id": "114", "host_type": "normal", "title": "Elegant Tangerine Room w/Breakfast", "city": "Seattle", "state": "WA", "latitude": "47.66695593", "longitude": "-122.3155975", "reservable": "1", "price": "40", "place_type": "Private room", "review_average": "2.75", "number_of_reviews": "30", "saved": "0"}
{"id": "115", "host_type": "normal", "title": "Great Location HEART of UW Studio", "city": "Seattle", "state": "WA", "latitude": "47.65707082", "longitude": "-122.3142602", "reservable": "1", "price": "85", "place_type": "Entire home/apt", "review_average": "3.15", "number_of_reviews": "7", "saved": "0"}
{"id": "116", "host_type": "normal", "title": "UNIVERSITY DISTRC CHARMER (Sleep10)", "city": "Seattle", "state": "WA", "latitude": "47.66494949", "longitude": "-122.3211328", "reservable": "1", "price": "275", "place_type": "Entire home/apt", "review_average": "2.61", "number_of_reviews": "17", "saved": "1"}
{"id": "117", "host_type": "normal", "title": "Remodeled Walk to UW/View/Serene #F", "city": "Seattle", "state": "WA", "latitude": "47.66701648", "longitude": "-122.3044009", "reservable": "1", "price": "105", "place_type": "Entire home/apt", "review_average": "2.01", "number_of_reviews": "29", "saved": "0"}
{"id": "118", "host_type": "normal", "title": "Spacious Fast Internet Walk to UW43", "city": "Seattle", "state": "WA", "latitude": "47.65917007", "longitude": "-122.3165354", "reservable": "1", "price": "78", "place_type": "Entire home/apt", "review_average": "3.59", "number_of_reviews": "7", "saved": "0"}
{"id": "119", "host_type": "normal", "title": "Lovely 1 bedroom apartment", "city": "Seattle", "state": "WA", "latitude": "47.66456191", "longitude": "-122.3083994", "reservable": "1", "price": "150", "place_type": "Entire home/apt", "review_average": "1.48", "number_of_reviews": "8", "saved": "0"}
{"id": "120", "host_type": "normal", "title": "Steps to UW spacious New carpet 33", "city": "Seattle", "state": "WA", "latitude": "47.65892905", "longitude": "-122.3163078", "reservable": "1", "price": "95", "place_type": "Entire home/apt", "review_average": "3.86", "number_of_reviews": "3", "saved": "1"}
{"id": "121", "host_type": "normal", "title": "Center UW, Comfy, Clean &View (204)", "city": "Seattle", "state": "WA", "latitude": "47.66169364", "longitude": "-122.3129142", "reservable": "1", "price": "98", "place_type": "Entire home/apt", "review_average": "3.61", "number_of_reviews": "15", "saved": "0"}
{"id": "122", "host_type": "normal", "title": "Spacious,modernU Village W/D (304)", "city": "Seattle", "state": "WA", "latitude": "47.6643652", "longitude": "-122.3032258", "reservable": "1", "price": "110", "place_type": "Entire home/apt", "review_average": "4.52", "number_of_reviews": "13", "saved": "0"}
{"id": "123", "host_type": "normal", "title": "Super comfortable, UW (44)", "city": "Seattle", "state": "WA", "latitude": "47.65962584", "longitude": "-122.3174207", "reservable": "1", "price": "105", "place_type": "Entire home/apt", "review_average": "4.83", "number_of_reviews": "25", "saved": "0"}
{"id": "124", "host_type": "normal", "title": "New carpet Walk to UW. Quiet Top 50", "city": "Seattle", "state": "WA", "latitude": "47.65753036", "longitude": "-122.3178532", "reservable": "1", "price": "85", "place_type": "Entire home/apt", "review_average": "2.03", "number_of_reviews": "17", "saved": "1"}
{"id": "125", "host_type": "normal", "title": "Center UW Comfy Wood Floor (216)", "city": "Seattle", "state": "WA", "latitude": "47.66145428", "longitude": "-122.3129249", "reservable": "1", "price": "95", "place_type": "Entire home/apt", "review_average": "1.54", "number_of_reviews": "1", "saved": "0"}
{"id": "126", "host_type": "normal", "title": "The Pink Room w/Breakfast", "city": "Seattle", "state": "WA", "latitude": "47.66667724", "longitude": "-122.3163437", "reservable": "1", "price": "45", "place_type": "Private room", "review_average": "1.38", "number_of_reviews": "28", "saved": "0"}
{"id": "127", "host_type": "super", "title": "Great Location Near the University", "city": "Seattle", "state": "WA", "latitude": "47.66818255", "longitude": "-122.3173717", "reservable": "1", "price": "112", "place_type": "Entire home/apt", "review_average": "2.93", "number_of_reviews": "40", "saved": "0"}
{"id": "128", "host_type": "normal", "title": "3 Min walk to UW, Large Quiet (51)", "city": "Seattle", "state": "WA", "latitude": "47.65712478", "longitude": "-122.3178221", "reservable": "1", "price": "85", "place_type": "Entire home/apt", "review_average": "2.41", "number_of_reviews": "8", "saved": "1"}
{"id": "129", "host_type": "normal", "title": "The Yellow Room w/Breakfast", "city": "Seattle", "state": "WA", "latitude": "47.66709569", "longitude": "-122.3168086", "reservable": "1", "price": "41", "place_type": "Private room", "review_average": "3.71", "number_of_reviews": "15", "saved": "0"}
{"id": "130", "host_type": "normal", "title": "Across St. UW Tower Hotel Deca 206", "city": "Seattle", "state": "WA", "latitude": "47.66250162", "longitude": "-122.3134163", "reservable": "1", "price": "70", "place_type": "Entire home/apt", "review_average": "1.94", "number_of_reviews": "1", "saved": "0"}
{"id": "131", "host_type": "normal", "title": "Center UW Quiet Comfy shortwalk 308", "city": "Seattle", "state": "WA", "latitude": "47.66125018", "longitude": "-122.3143933", "reservable": "1", "price": "110", "place_type": "Entire home/apt", "review_average": "2.94", "number_of_reviews": "5", "saved": "0"}
{"id": "132", "host_type": "normal", "title": "3 BR/1 BA Seattle Cottage", "city": "Seattle", "state": "WA", "latitude": "47.67119879", "longitude": "-122.3150932", "reservable": "1", "price": "125", "place_type": "Entire home/apt", "review_average": "4.53", "number_of_reviews": "10", "saved": "1"}
{"id": "133", "host_type": "normal", "title": "Center UW Comfy Quiet & View (306)", "city": "Seattle", "state": "WA", "latitude": "47.66132295", "longitude": "-122.3149835", "reservable": "1", "price": "90", "place_type": "Entire home/apt", "review_average": "0.6", "number_of_reviews": "6", "saved": "0"}
{"id": "134", "host_type": "normal", "title": "Center UW Blast Internet New #102", "city": "Seattle", "state": "WA", "latitude": "47.66116769", "longitude": "-122.3146512", "reservable": "1", "price": "85", "place_type": "Entire home/apt", "review_average": "2.6", "number_of_reviews": "12", "saved": "0"}
{"id": "135", "host_type": "normal", "title": "Remodeled wood Floor walk to UW 101", "city": "Seattle", "state": "WA", "latitude": "47.66101092", "longitude": "-122.3137344", "reservable": "1", "price": "88", "place_type": "Entire home/apt", "review_average": "2.57", "number_of_reviews": "12", "saved": "0"}
{"id": "136", "host_type": "normal", "title": "Serene W/D  walk toUW/U Village 404", "city": "Seattle", "state": "WA", "latitude": "47.6626723", "longitude": "-122.3043698", "reservable": "1", "price": "92", "place_type": "Entire home/apt", "review_average": "4.39", "number_of_reviews": "1", "saved": "1"}
{"id": "137", "host_type": "normal", "title": "Center UW Blast Internet New #102", "city": "Seattle", "state": "WA", "latitude": "47.66148495", "longitude": "-122.3156934", "reservable": "1", "price": "70", "place_type": "Entire home/apt", "review_average": "1.66", "number_of_reviews": "1", "saved": "0"}
{"id": "138", "host_type": "normal", "title": "Center UW Good WiFi Comfy 217", "city": "Seattle", "state": "WA", "latitude": "47.66129401", "longitude": "-122.313182", "reservable": "1", "price": "93", "place_type": "Entire home/apt", "review_average": "4.79", "number_of_reviews": "2", "saved": "0"}
{"id": "139", "host_type": "normal", "title": "Blue Nautical Room w/Breakfast", "city": "Seattle", "state": "WA", "latitude": "47.66871493", "longitude": "-122.3163162", "reservable": "1", "price": "40", "place_type": "Private room", "review_average": "2.29", "number_of_reviews": "23", "saved": "0"}
{"id": "140", "host_type": "normal", "title": "Interns-New available Walk to UW 41", "city": "Seattle", "state": "WA", "latitude": "47.65836316", "longitude": "-122.3180063", "reservable": "1", "price": "90", "place_type": "Entire home/apt", "review_average": "4.58", "number_of_reviews": "9", "saved": "1"}
{"id": "141", "host_type": "normal", "title": "Charming 1920s Unit in U-District", "city": "Seattle", "state": "WA", "latitude": "47.66044158", "longitude": "-122.3137683", "reservable": "1", "price": "115", "place_type": "Entire home/apt", "review_average": "4.4", "number_of_reviews": "14", "saved": "0"}
{"id": "142", "host_type": "normal", "title": "View Emerald City Jewel Apt UW 1BD", "city": "Seattle", "state": "WA", "latitude": "47.65877003", "longitude": "-122.3136904", "reservable": "1", "price": "89", "place_type": "Entire home/apt", "review_average": "4.14", "number_of_reviews": "124", "saved": "0"}
{"id": "143", "host_type": "normal", "title": "Center UW, Convenient  Comfy  (212)", "city": "Seattle", "state": "WA", "latitude": "47.66154612", "longitude": "-122.3147937", "reservable": "1", "price": "85", "place_type": "Entire home/apt", "review_average": "0.95", "number_of_reviews": "5", "saved": "0"}
{"id": "144", "host_type": "normal", "title": "Remodeled Hardwood 3 min walk UW 37", "city": "Seattle", "state": "WA", "latitude": "47.65856121", "longitude": "-122.3160866", "reservable": "1", "price": "105", "place_type": "Entire home/apt", "review_average": "3.63", "number_of_reviews": "3", "saved": "1"}
{"id": "145", "host_type": "normal", "title": "New Spacious Private Home UW Lake U", "city": "Seattle", "state": "WA", "latitude": "47.65665819", "longitude": "-122.3203138", "reservable": "1", "price": "92", "place_type": "Entire home/apt", "review_average": "2.21", "number_of_reviews": "34", "saved": "0"}
{"id": "146", "host_type": "normal", "title": "2 Baths W/D,View,  Walk UW (402)", "city": "Seattle", "state": "WA", "latitude": "47.6623606", "longitude": "-122.302424", "reservable": "1", "price": "145", "place_type": "Entire home/apt", "review_average": "1.37", "number_of_reviews": "7", "saved": "0"}
{"id": "147", "host_type": "normal", "title": "View Walk to UW Village 2B 2B (402)", "city": "Seattle", "state": "WA", "latitude": "47.66321788", "longitude": "-122.3043709", "reservable": "1", "price": "150", "place_type": "Entire home/apt", "review_average": "3.13", "number_of_reviews": "8", "saved": "0"}
{"id": "148", "host_type": "normal", "title": "Center UW Comfy  New kitchen 103", "city": "Seattle", "state": "WA", "latitude": "47.66313458", "longitude": "-122.3145582", "reservable": "1", "price": "98", "place_type": "Entire home/apt", "review_average": "1.04", "number_of_reviews": "2", "saved": "1"}
{"id": "149", "host_type": "normal", "title": "University District One Bedroom", "city": "Seattle", "state": "WA", "latitude": "47.66396766", "longitude": "-122.3065185", "reservable": "1", "price": "110", "place_type": "Entire home/apt", "review_average": "3.28", "number_of_reviews": "7", "saved": "0"}
{"id": "150", "host_type": "normal", "title": "Cool, Fast WIFI walk to UW (14)", "city": "Seattle", "state": "WA", "latitude": "47.65860891", "longitude": "-122.317713", "reservable": "1", "price": "95", "place_type": "Entire home/apt", "review_average": "0.5", "number_of_reviews": "23", "saved": "0"}
{"id": "151", "host_type": "normal", "title": "Hardwood Clean Quiet Walk to UW (52", "city": "Seattle", "state": "WA", "latitude": "47.65697036", "longitude": "-122.3157798", "reservable": "1", "price": "105", "place_type": "Entire home/apt", "review_average": "1.79", "number_of_reviews": "5", "saved": "0"}
{"id": "152", "host_type": "normal", "title": "2 Ba/2 Br Fast Wifi Walk to UW (35)", "city": "Seattle", "state": "WA", "latitude": "47.65747556", "longitude": "-122.3175427", "reservable": "1", "price": "150", "place_type": "Entire home/apt", "review_average": "2.46", "number_of_reviews": "1", "saved": "1"}
{"id": "153", "host_type": "normal", "title": "Garden Apartment in Madison Valley", "city": "Seattle", "state": "WA", "latitude": "47.6201619", "longitude": "-122.2958143", "reservable": "1", "price": "128", "place_type": "Entire home/apt", "review_average": "2.63", "number_of_reviews": "158", "saved": "0"}
{"id": "154", "host_type": "super", "title": "Charming and Private-AAA Location", "city": "Seattle", "state": "WA", "latitude": "47.62543446", "longitude": "-122.2904389", "reservable": "1", "price": "168", "place_type": "Entire home/apt", "review_average": "0.92", "number_of_reviews": "75", "saved": "0"}
{"id": "155", "host_type": "super", "title": "Madison Valley Garden Cottage", "city": "Seattle", "state": "WA", "latitude": "47.62302601", "longitude": "-122.2952981", "reservable": "1", "price": "80", "place_type": "Entire home/apt", "review_average": "3.01", "number_of_reviews": "25", "saved": "0"}
{"id": "156", "host_type": "normal", "title": "Mini-apt Seattle w/ bkyard oasis!", "city": "Seattle", "state": "WA", "latitude": "47.62250279", "longitude": "-122.2956157", "reservable": "1", "price": "105", "place_type": "Entire home/apt", "review_average": "3.69", "number_of_reviews": "28", "saved": "1"}
{"id": "157", "host_type": "normal", "title": "Cozy Suite Near Capitol Hill & Lake", "city": "Seattle", "state": "WA", "latitude": "47.6241695", "longitude": "-122.2930447", "reservable": "1", "price": "50", "place_type": "Private room", "review_average": "2.73", "number_of_reviews": "2", "saved": "0"}
{"id": "158", "host_type": "normal", "title": "1BR Apt w/ Kitchen & Huge Backyard", "city": "Seattle", "state": "WA", "latitude": "47.60518579", "longitude": "-122.3123022", "reservable": "1", "price": "85", "place_type": "Entire home/apt", "review_average": "0.64", "number_of_reviews": "74", "saved": "0"}
{"id": "159", "host_type": "super", "title": "Modern/Minimalist Apt next2 dwntown", "city": "Seattle", "state": "WA", "latitude": "47.60308859", "longitude": "-122.305234", "reservable": "1", "price": "79", "place_type": "Entire home/apt", "review_average": "0.5", "number_of_reviews": "104", "saved": "0"}
{"id": "160", "host_type": "super", "title": "Three Floors & Rooftop Deck Central", "city": "Seattle", "state": "WA", "latitude": "47.60581271", "longitude": "-122.3040398", "reservable": "1", "price": "330", "place_type": "Entire home/apt", "review_average": "0.79", "number_of_reviews": "4", "saved": "1"}
{"id": "161", "host_type": "super", "title": "Special Events Venue and Guesthouse", "city": "Seattle", "state": "WA", "latitude": "47.60679614", "longitude": "-122.3090857", "reservable": "1", "price": "350", "place_type": "Entire home/apt", "review_average": "3.19", "number_of_reviews": "7", "saved": "0"}
{"id": "162", "host_type": "super", "title": "Central Dist King Bd & Ensuite Bath", "city": "Seattle", "state": "WA", "latitude": "47.60440567", "longitude": "-122.3054291", "reservable": "1", "price": "130", "place_type": "Private room", "review_average": "2.44", "number_of_reviews": "5", "saved": "0"}
{"id": "163", "host_type": "normal", "title": "Sunny Capitol Hill Room in 4plex", "city": "Seattle", "state": "WA", "latitude": "47.61173102", "longitude": "-122.3082675", "reservable": "1", "price": "80", "place_type": "Private room", "review_average": "2.37", "number_of_reviews": "3", "saved": "0"}
{"id": "164", "host_type": "super", "title": "Private Bed/bath in Home: green (A)", "city": "Seattle", "state": "WA", "latitude": "47.61600214", "longitude": "-122.3080604", "reservable": "1", "price": "72", "place_type": "Private room", "review_average": "1.78", "number_of_reviews": "94", "saved": "1"}
{"id": "165", "host_type": "super", "title": " Cherry Hill Cozy, Budget Loft-Bed ", "city": "Seattle", "state": "WA", "latitude": "47.60620715", "longitude": "-122.3068346", "reservable": "1", "price": "58", "place_type": "Private room", "review_average": "1.31", "number_of_reviews": "68", "saved": "0"}
{"id": "166", "host_type": "super", "title": "Near Seattle University on Cap Hill", "city": "Seattle", "state": "WA", "latitude": "47.6097965", "longitude": "-122.3153297", "reservable": "1", "price": "100", "place_type": "Private room", "review_average": "1.47", "number_of_reviews": "4", "saved": "0"}
{"id": "167", "host_type": "super", "title": "Private room/bath just for you!", "city": "Seattle", "state": "WA", "latitude": "47.60415027", "longitude": "-122.3032345", "reservable": "1", "price": "69", "place_type": "Private room", "review_average": "1.74", "number_of_reviews": "29", "saved": "0"}
{"id": "168", "host_type": "super", "title": "Cozy 2BD Seattle Home w/ Hot Tub", "city": "Seattle", "state": "WA", "latitude": "47.61122138", "longitude": "-122.3069443", "reservable": "1", "price": "165", "place_type": "Entire home/apt", "review_average": "2.94", "number_of_reviews": "47", "saved": "1"}
{"id": "169", "host_type": "super", "title": "Victorian Charm on Cherry Hill", "city": "Seattle", "state": "WA", "latitude": "47.60794615", "longitude": "-122.3075402", "reservable": "1", "price": "70", "place_type": "Private room", "review_average": "2.52", "number_of_reviews": "52", "saved": "0"}
{"id": "170", "host_type": "super", "title": "Central District Simple Clean Queen", "city": "Seattle", "state": "WA", "latitude": "47.60409559", "longitude": "-122.3054089", "reservable": "1", "price": "105", "place_type": "Private room", "review_average": "1.77", "number_of_reviews": "8", "saved": "0"}
{"id": "171", "host_type": "super", "title": "Seattle \"Sweet Suite\" Cherry Hill ", "city": "Seattle", "state": "WA", "latitude": "47.6064609", "longitude": "-122.3074784", "reservable": "1", "price": "111", "place_type": "Private room", "review_average": "1.49", "number_of_reviews": "75", "saved": "0"}
{"id": "172", "host_type": "super", "title": "Central Dist Townhome  2 Twin Bed/s", "city": "Seattle", "state": "WA", "latitude": "47.60632184", "longitude": "-122.3055772", "reservable": "1", "price": "108", "place_type": "Private room", "review_average": "0.85", "number_of_reviews": "8", "saved": "1"}
{"id": "173", "host_type": "normal", "title": "Modern 4BR/3.5BA Near Downtown", "city": "Seattle", "state": "WA", "latitude": "47.61197874", "longitude": "-122.3036215", "reservable": "1", "price": "270", "place_type": "Entire home/apt", "review_average": "4.9", "number_of_reviews": "1", "saved": "0"}
{"id": "174", "host_type": "normal", "title": "Large 4- Bed House In Ideal Seattle", "city": "Seattle", "state": "WA", "latitude": "47.60419373", "longitude": "-122.3099201", "reservable": "1", "price": "300", "place_type": "Entire home/apt", "review_average": "1.93", "number_of_reviews": "21", "saved": "0"}
{"id": "175", "host_type": "super", "title": "Arty \"Cedar Tree\" Room  Cherry Hill", "city": "Seattle", "state": "WA", "latitude": "47.60761884", "longitude": "-122.3083246", "reservable": "1", "price": "87", "place_type": "Private room", "review_average": "3.85", "number_of_reviews": "49", "saved": "0"}
{"id": "176", "host_type": "normal", "title": "Spacious, Sunlit Capitol Hill Home", "city": "Seattle", "state": "WA", "latitude": "47.60951889", "longitude": "-122.3127036", "reservable": "1", "price": "156", "place_type": "Entire home/apt", "review_average": "4.45", "number_of_reviews": "4", "saved": "1"}
{"id": "177", "host_type": "super", "title": "Private Room in Capitol Hill", "city": "Seattle", "state": "WA", "latitude": "47.60712102", "longitude": "-122.3104627", "reservable": "1", "price": "90", "place_type": "Private room", "review_average": "4.24", "number_of_reviews": "32", "saved": "0"}
{"id": "178", "host_type": "super", "title": "The Parsonage: Modern 3bed/3.5bath", "city": "Seattle", "state": "WA", "latitude": "47.61704032", "longitude": "-122.3028063", "reservable": "1", "price": "325", "place_type": "Entire home/apt", "review_average": "4.45", "number_of_reviews": "1", "saved": "0"}
{"id": "179", "host_type": "super", "title": "Seclusion in the HEART of Seattle", "city": "Seattle", "state": "WA", "latitude": "47.61210627", "longitude": "-122.3041249", "reservable": "1", "price": "125", "place_type": "Entire home/apt", "review_average": "2.31", "number_of_reviews": "20", "saved": "0"}
{"id": "180", "host_type": "super", "title": "Sparkling Modern Seattle Home", "city": "Seattle", "state": "WA", "latitude": "47.61237958", "longitude": "-122.3137424", "reservable": "1", "price": "200", "place_type": "Entire home/apt", "review_average": "4.52", "number_of_reviews": "40", "saved": "1"}
{"id": "181", "host_type": "super", "title": "Central Cozy private full 1 BR+ apt", "city": "Seattle", "state": "WA", "latitude": "47.61441923", "longitude": "-122.3067207", "reservable": "1", "price": "90", "place_type": "Entire home/apt", "review_average": "0.75", "number_of_reviews": "51", "saved": "0"}
{"id": "182", "host_type": "super", "title": "1 Bed+Den Eco-Retreat", "city": "Seattle", "state": "WA", "latitude": "47.60863925", "longitude": "-122.3065334", "reservable": "1", "price": "150", "place_type": "Entire home/apt", "review_average": "1.64", "number_of_reviews": "36", "saved": "0"}
{"id": "183", "host_type": "normal", "title": "Perfect Family Vacation Home in SEA", "city": "Seattle", "state": "WA", "latitude": "47.6041844", "longitude": "-122.312639", "reservable": "1", "price": "150", "place_type": "Entire home/apt", "review_average": "2.13", "number_of_reviews": "7", "saved": "0"}
{"id": "184", "host_type": "normal", "title": "Squire Park Lady 2-bed modern home", "city": "Seattle", "state": "WA", "latitude": "47.60275515", "longitude": "-122.3119689", "reservable": "1", "price": "150", "place_type": "Entire home/apt", "review_average": "4.67", "number_of_reviews": "6", "saved": "1"}
{"id": "185", "host_type": "normal", "title": "Charming Madrona 1 Bedroom", "city": "Seattle", "state": "WA", "latitude": "47.60724932", "longitude": "-122.2941532", "reservable": "1", "price": "125", "place_type": "Entire home/apt", "review_average": "4.62", "number_of_reviews": "29", "saved": "0"}
{"id": "186", "host_type": "normal", "title": "Lovely home close to town and lake", "city": "Seattle", "state": "WA", "latitude": "47.60393134", "longitude": "-122.2945169", "reservable": "1", "price": "199", "place_type": "Entire home/apt", "review_average": "2.83", "number_of_reviews": "9", "saved": "0"}
{"id": "187", "host_type": "normal", "title": "Lovely family home, stunning views", "city": "Seattle", "state": "WA", "latitude": "47.59431107", "longitude": "-122.2944084", "reservable": "1", "price": "200", "place_type": "Entire home/apt", "review_average": "2.03", "number_of_reviews": "22", "saved": "0"}
{"id": "188", "host_type": "normal", "title": "Mother in Law Apartment- Queen Bed", "city": "Seattle", "state": "WA", "latitude": "47.60459749", "longitude": "-122.296725", "reservable": "1", "price": "85", "place_type": "Entire home/apt", "review_average": "2.89", "number_of_reviews": "5", "saved": "1"}
{"id": "189", "host_type": "super", "title": "Madrona 3BR/ 2BA Charming Craftsman", "city": "Seattle", "state": "WA", "latitude": "47.60639203", "longitude": "-122.2906124", "reservable": "1", "price": "200", "place_type": "Entire home/apt", "review_average": "4.61", "number_of_reviews": "20", "saved": "0"}
{"id": "190", "host_type": "normal", "title": "Centrally Located 3bd/2.5ba Home", "city": "Seattle", "state": "WA", "latitude": "47.59708807", "longitude": "-122.2973948", "reservable": "1", "price": "163", "place_type": "Entire home/apt", "review_average": "3.53", "number_of_reviews": "5", "saved": "0"}
{"id": "191", "host_type": "normal", "title": "Convenient 2 BR, 10min to Downtown", "city": "Seattle", "state": "WA", "latitude": "47.60568442", "longitude": "-122.2953598", "reservable": "1", "price": "135", "place_type": "Entire home/apt", "review_average": "0.89", "number_of_reviews": "32", "saved": "0"}
{"id": "192", "host_type": "normal", "title": "Madrona Urban Oasis-Views & Space!!", "city": "Seattle", "state": "WA", "latitude": "47.60688433", "longitude": "-122.2872419", "reservable": "1", "price": "500", "place_type": "Entire home/apt", "review_average": "2.64", "number_of_reviews": "3", "saved": "1"}
{"id": "193", "host_type": "normal", "title": "Spacious spot in central location", "city": "Seattle", "state": "WA", "latitude": "47.59495768", "longitude": "-122.2951655", "reservable": "1", "price": "80", "place_type": "Entire home/apt", "review_average": "1.66", "number_of_reviews": "40", "saved": "0"}
{"id": "194", "host_type": "super", "title": "Gorgeous cottage 5 min to downtown", "city": "Seattle", "state": "WA", "latitude": "47.59142846", "longitude": "-122.3017387", "reservable": "1", "price": "125", "place_type": "Entire home/apt", "review_average": "2", "number_of_reviews": "15", "saved": "0"}
{"id": "195", "host_type": "super", "title": "Private Room/Bath in Modern Home #2", "city": "Seattle", "state": "WA", "latitude": "47.59515922", "longitude": "-122.3090613", "reservable": "1", "price": "69", "place_type": "Private room", "review_average": "4.13", "number_of_reviews": "19", "saved": "0"}
{"id": "196", "host_type": "super", "title": "Urban cabin with loft, full kitchen", "city": "Seattle", "state": "WA", "latitude": "47.59958299", "longitude": "-122.3131538", "reservable": "1", "price": "95", "place_type": "Entire home/apt", "review_average": "3.46", "number_of_reviews": "38", "saved": "1"}
{"id": "197", "host_type": "normal", "title": "Urban Farmhouse - Seattle Oasis", "city": "Seattle", "state": "WA", "latitude": "47.59639091", "longitude": "-122.3049055", "reservable": "1", "price": "168", "place_type": "Entire home/apt", "review_average": "2.59", "number_of_reviews": "1", "saved": "0"}
{"id": "198", "host_type": "normal", "title": "Quaint & Cozy, a Place to Call Home", "city": "Seattle", "state": "WA", "latitude": "47.59361162", "longitude": "-122.3097999", "reservable": "1", "price": "115", "place_type": "Entire home/apt", "review_average": "1.58", "number_of_reviews": "45", "saved": "0"}
{"id": "199", "host_type": "super", "title": "Private Room/Bath in Modern Home #1", "city": "Seattle", "state": "WA", "latitude": "47.59412508", "longitude": "-122.3086619", "reservable": "1", "price": "69", "place_type": "Private room", "review_average": "3.96", "number_of_reviews": "61", "saved": "0"}
{"id": "200", "host_type": "normal", "title": "1BdRm 3bds w/AC fits 6snug Near DT", "city": "Seattle", "state": "WA", "latitude": "47.58172347", "longitude": "-122.2989805", "reservable": "1", "price": "79", "place_type": "Entire home/apt", "review_average": "2.77", "number_of_reviews": "64", "saved": "1"}
{"id": "201", "host_type": "normal", "title": "Luxurious Seattle Apartment", "city": "Seattle", "state": "WA", "latitude": "47.60777108", "longitude": "-122.3396398", "reservable": "1", "price": "99", "place_type": "Entire home/apt", "review_average": "2.82", "number_of_reviews": "43", "saved": "0"}
{"id": "202", "host_type": "super", "title": "Lake Union City Cabin", "city": "Seattle", "state": "WA", "latitude": "47.64482057", "longitude": "-122.3274884", "reservable": "1", "price": "135", "place_type": "Entire home/apt", "review_average": "2.18", "number_of_reviews": "16", "saved": "0"}
{"id": "203", "host_type": "normal", "title": "Charming Eastlake Bungalow", "city": "Seattle", "state": "WA", "latitude": "47.64208137", "longitude": "-122.3246051", "reservable": "1", "price": "75", "place_type": "Entire home/apt", "review_average": "4.42", "number_of_reviews": "9", "saved": "0"}
{"id": "204", "host_type": "super", "title": "Lake Union view \"Sky Cabin\" apt.", "city": "Seattle", "state": "WA", "latitude": "47.64338999", "longitude": "-122.3258219", "reservable": "1", "price": "138", "place_type": "Entire home/apt", "review_average": "3.48", "number_of_reviews": "188", "saved": "1"}
{"id": "205", "host_type": "normal", "title": "Spanish Deco Lakeside Apartment", "city": "Seattle", "state": "WA", "latitude": "47.6405253", "longitude": "-122.3285206", "reservable": "1", "price": "129", "place_type": "Entire home/apt", "review_average": "2.82", "number_of_reviews": "3", "saved": "0"}
{"id": "206", "host_type": "normal", "title": "Charming Eastlake Townhouse ", "city": "Seattle", "state": "WA", "latitude": "47.64050458", "longitude": "-122.3282016", "reservable": "1", "price": "135", "place_type": "Entire home/apt", "review_average": "2.75", "number_of_reviews": "2", "saved": "0"}
{"id": "207", "host_type": "super", "title": "Clean+Comfy Eastlake/Lk Union 1BR", "city": "Seattle", "state": "WA", "latitude": "47.63897301", "longitude": "-122.3248878", "reservable": "1", "price": "95", "place_type": "Entire home/apt", "review_average": "4.8", "number_of_reviews": "47", "saved": "0"}
{"id": "208", "host_type": "normal", "title": "Lake Union Tranquil Retreat", "city": "Seattle", "state": "WA", "latitude": "47.64793265", "longitude": "-122.3233427", "reservable": "1", "price": "85", "place_type": "Entire home/apt", "review_average": "4.44", "number_of_reviews": "22", "saved": "1"}
{"id": "209", "host_type": "super", "title": "Lake Union view \"Garden Apartment\"", "city": "Seattle", "state": "WA", "latitude": "47.64454557", "longitude": "-122.3255229", "reservable": "1", "price": "115", "place_type": "Entire home/apt", "review_average": "0.7", "number_of_reviews": "146", "saved": "0"}
{"id": "210", "host_type": "normal", "title": "NEW 1 BD listing CENTRAL/MODERN", "city": "Seattle", "state": "WA", "latitude": "47.64425525", "longitude": "-122.3261722", "reservable": "1", "price": "134", "place_type": "Entire home/apt", "review_average": "1.65", "number_of_reviews": "6", "saved": "0"}
{"id": "211", "host_type": "normal", "title": "Incredible View Lake Union Condo!", "city": "Seattle", "state": "WA", "latitude": "47.64687986", "longitude": "-122.3241736", "reservable": "1", "price": "125", "place_type": "Entire home/apt", "review_average": "0.57", "number_of_reviews": "34", "saved": "0"}
{"id": "212", "host_type": "normal", "title": "South Lake Union Penthouse", "city": "Seattle", "state": "WA", "latitude": "47.6208625", "longitude": "-122.3389661", "reservable": "1", "price": "550", "place_type": "Entire home/apt", "review_average": "0.53", "number_of_reviews": "7", "saved": "1"}
{"id": "213", "host_type": "normal", "title": "94 walk-score elegant SLU Apt. room", "city": "Seattle", "state": "WA", "latitude": "47.62175656", "longitude": "-122.3296963", "reservable": "1", "price": "75", "place_type": "Private room", "review_average": "1.18", "number_of_reviews": "4", "saved": "0"}
{"id": "214", "host_type": "normal", "title": "South Lake Union Penthouse Room", "city": "Seattle", "state": "WA", "latitude": "47.62096789", "longitude": "-122.3377744", "reservable": "1", "price": "220", "place_type": "Private room", "review_average": "4.79", "number_of_reviews": "12", "saved": "0"}
{"id": "215", "host_type": "super", "title": "Super location, 3.5ba, Free Parking", "city": "Seattle", "state": "WA", "latitude": "47.65103145", "longitude": "-122.3850038", "reservable": "1", "price": "333", "place_type": "Entire home/apt", "review_average": "3.32", "number_of_reviews": "29", "saved": "0"}
{"id": "216", "host_type": "normal", "title": "Light-filled 2BR/1BA Home Magnolia", "city": "Seattle", "state": "WA", "latitude": "47.64899205", "longitude": "-122.397112", "reservable": "1", "price": "200", "place_type": "Entire home/apt", "review_average": "3.33", "number_of_reviews": "7", "saved": "1"}
{"id": "217", "host_type": "normal", "title": "Bright Quiet Room Close to Downtown", "city": "Seattle", "state": "WA", "latitude": "47.64987479", "longitude": "-122.3835612", "reservable": "1", "price": "40", "place_type": "Private room", "review_average": "4.76", "number_of_reviews": "58", "saved": "0"}
{"id": "218", "host_type": "normal", "title": "Seattle Discovery Birdhouse", "city": "Seattle", "state": "WA", "latitude": "47.65312176", "longitude": "-122.4098169", "reservable": "1", "price": "88", "place_type": "Private room", "review_average": "3.99", "number_of_reviews": "71", "saved": "0"}
{"id": "219", "host_type": "normal", "title": "Magnolia View Retreat", "city": "Seattle", "state": "WA", "latitude": "47.64012727", "longitude": "-122.4027391", "reservable": "1", "price": "250", "place_type": "Entire home/apt", "review_average": "0.77", "number_of_reviews": "4", "saved": "0"}
{"id": "220", "host_type": "normal", "title": "100% Walk Score 1-BR Downtown", "city": "Seattle", "state": "WA", "latitude": "47.61537863", "longitude": "-122.3352588", "reservable": "1", "price": "999", "place_type": "Entire home/apt", "review_average": "1.04", "number_of_reviews": "54", "saved": "1"}
{"id": "221", "host_type": "normal", "title": "99% walkscore Water View + FREE CAR", "city": "Seattle", "state": "WA", "latitude": "47.6146353", "longitude": "-122.3454", "reservable": "1", "price": "105", "place_type": "Entire home/apt", "review_average": "3.36", "number_of_reviews": "6", "saved": "0"}
{"id": "222", "host_type": "normal", "title": "POSH URBAN GETAWAY | WATERFRONT", "city": "Seattle", "state": "WA", "latitude": "47.6138396", "longitude": "-122.349435", "reservable": "1", "price": "128", "place_type": "Entire home/apt", "review_average": "3.7", "number_of_reviews": "67", "saved": "0"}
{"id": "223", "host_type": "super", "title": "Cozy 1 BD in Belltown", "city": "Seattle", "state": "WA", "latitude": "47.6172487", "longitude": "-122.3472461", "reservable": "1", "price": "100", "place_type": "Entire home/apt", "review_average": "1.27", "number_of_reviews": "61", "saved": "0"}
{"id": "224", "host_type": "normal", "title": "Downtown Apartment by Pike Place", "city": "Seattle", "state": "WA", "latitude": "47.61269735", "longitude": "-122.3415262", "reservable": "1", "price": "140", "place_type": "Entire home/apt", "review_average": "3.75", "number_of_reviews": "13", "saved": "1"}
{"id": "225", "host_type": "super", "title": "Aunt Sally's Studio-GREAT Location!", "city": "Seattle", "state": "WA", "latitude": "47.61758375", "longitude": "-122.3533028", "reservable": "1", "price": "93", "place_type": "Entire home/apt", "review_average": "4.35", "number_of_reviews": "49", "saved": "0"}
{"id": "226", "host_type": "super", "title": "Cozy Charmer Steps To Pike Place", "city": "Seattle", "state": "WA", "latitude": "47.61423956", "longitude": "-122.3489068", "reservable": "1", "price": "155", "place_type": "Entire home/apt", "review_average": "1.97", "number_of_reviews": "14", "saved": "0"}
{"id": "227", "host_type": "normal", "title": "Studio Apt., Belltown, Seattle", "city": "Seattle", "state": "WA", "latitude": "47.61504932", "longitude": "-122.3429315", "reservable": "1", "price": "100", "place_type": "Entire home/apt", "review_average": "3.5", "number_of_reviews": "28", "saved": "0"}
{"id": "228", "host_type": "normal", "title": "Beautiful downtown Apt. Top floor", "city": "Seattle", "state": "WA", "latitude": "47.61582776", "longitude": "-122.3407773", "reservable": "1", "price": "125", "place_type": "Entire home/apt", "review_average": "4.82", "number_of_reviews": "13", "saved": "1"}
{"id": "229", "host_type": "super", "title": "Charming Suite Near Space Needle!", "city": "Seattle", "state": "WA", "latitude": "47.61476068", "longitude": "-122.347023", "reservable": "1", "price": "135", "place_type": "Entire home/apt", "review_average": "3.83", "number_of_reviews": "20", "saved": "0"}
{"id": "230", "host_type": "normal", "title": "BRAND NEW WTRFNT nxt2 PIKE PLACE!", "city": "Seattle", "state": "WA", "latitude": "47.61365588", "longitude": "-122.3475903", "reservable": "1", "price": "155", "place_type": "Entire home/apt", "review_average": "2.5", "number_of_reviews": "71", "saved": "0"}
{"id": "231", "host_type": "normal", "title": "Sound View Condo in Seattle", "city": "Seattle", "state": "WA", "latitude": "47.61734292", "longitude": "-122.3561681", "reservable": "1", "price": "150", "place_type": "Entire home/apt", "review_average": "4.1", "number_of_reviews": "2", "saved": "0"}
{"id": "232", "host_type": "super", "title": "Seattle Dwntn Apt near Space Needle", "city": "Seattle", "state": "WA", "latitude": "47.61830941", "longitude": "-122.3464812", "reservable": "1", "price": "130", "place_type": "Entire home/apt", "review_average": "2.28", "number_of_reviews": "12", "saved": "1"}
{"id": "233", "host_type": "normal", "title": "Stunning  2 BR Belltown Luxury 007", "city": "Seattle", "state": "WA", "latitude": "47.61489769", "longitude": "-122.3406608", "reservable": "1", "price": "169", "place_type": "Entire home/apt", "review_average": "1.35", "number_of_reviews": "16", "saved": "0"}
{"id": "234", "host_type": "normal", "title": "BEST (historic) locat A/C FREE prkg", "city": "Seattle", "state": "WA", "latitude": "47.6152136", "longitude": "-122.3476362", "reservable": "1", "price": "125", "place_type": "Entire home/apt", "review_average": "1.15", "number_of_reviews": "67", "saved": "0"}
{"id": "235", "host_type": "super", "title": "Lovely 2BD in the Heart of the City", "city": "Seattle", "state": "WA", "latitude": "47.615434", "longitude": "-122.3485208", "reservable": "1", "price": "175", "place_type": "Entire home/apt", "review_average": "4.2", "number_of_reviews": "24", "saved": "0"}
{"id": "236", "host_type": "normal", "title": "2BR VIEW! 98% Walk Score, FREE pkg!", "city": "Seattle", "state": "WA", "latitude": "47.6132476", "longitude": "-122.3489803", "reservable": "1", "price": "183", "place_type": "Entire home/apt", "review_average": "0", "number_of_reviews": "7", "saved": "1"}
{"id": "237", "host_type": "super", "title": "Modern Condo Style with Great Views", "city": "Seattle", "state": "WA", "latitude": "47.61597692", "longitude": "-122.3480447", "reservable": "1", "price": "169", "place_type": "Entire home/apt", "review_average": "0.5", "number_of_reviews": "15", "saved": "0"}
{"id": "238", "host_type": "normal", "title": "Lovely Studio Apt in D.T. Seattle !", "city": "Seattle", "state": "WA", "latitude": "47.61687816", "longitude": "-122.3484842", "reservable": "1", "price": "115", "place_type": "Entire home/apt", "review_average": "1.04", "number_of_reviews": "115", "saved": "0"}
{"id": "239", "host_type": "normal", "title": "PERFECT downtown Seattle location!", "city": "Seattle", "state": "WA", "latitude": "47.6114921", "longitude": "-122.341192", "reservable": "1", "price": "165", "place_type": "Entire home/apt", "review_average": "1.03", "number_of_reviews": "4", "saved": "0"}
{"id": "240", "host_type": "normal", "title": "Gorgeous Downtown Apartment", "city": "Seattle", "state": "WA", "latitude": "47.61227626", "longitude": "-122.3437812", "reservable": "1", "price": "145", "place_type": "Entire home/apt", "review_average": "1.36", "number_of_reviews": "45", "saved": "1"}
{"id": "241", "host_type": "normal", "title": "2-bdrm Downtown Seattle", "city": "Seattle", "state": "WA", "latitude": "47.61558797", "longitude": "-122.3488223", "reservable": "1", "price": "250", "place_type": "Entire home/apt", "review_average": "1.37", "number_of_reviews": "68", "saved": "0"}
{"id": "242", "host_type": "normal", "title": "Downtown Seattle 2BR View Home", "city": "Seattle", "state": "WA", "latitude": "47.60148596", "longitude": "-122.325866", "reservable": "1", "price": "69", "place_type": "Entire home/apt", "review_average": "0.5", "number_of_reviews": "84", "saved": "0"}
{"id": "243", "host_type": "normal", "title": "2bdrm close to stadiums/light rail!", "city": "Seattle", "state": "WA", "latitude": "47.59964084", "longitude": "-122.3250541", "reservable": "1", "price": "250", "place_type": "Entire home/apt", "review_average": "1.16", "number_of_reviews": "3", "saved": "0"}
{"id": "244", "host_type": "normal", "title": "Seattle Downtown Core, Pike Market", "city": "Seattle", "state": "WA", "latitude": "47.60970346", "longitude": "-122.33626", "reservable": "1", "price": "159", "place_type": "Entire home/apt", "review_average": "3.54", "number_of_reviews": "57", "saved": "1"}
{"id": "245", "host_type": "normal", "title": "P6 Zen Retreat: Winter promo", "city": "Seattle", "state": "WA", "latitude": "47.61165911", "longitude": "-122.3310871", "reservable": "1", "price": "151", "place_type": "Entire home/apt", "review_average": "1.14", "number_of_reviews": "19", "saved": "0"}
{"id": "246", "host_type": "normal", "title": "Welcome to 2BD Downtown Seattle!", "city": "Seattle", "state": "WA", "latitude": "47.61288424", "longitude": "-122.3306759", "reservable": "1", "price": "175", "place_type": "Entire home/apt", "review_average": "3.27", "number_of_reviews": "17", "saved": "0"}
{"id": "247", "host_type": "super", "title": "View Apt Near Pike Place Market 1BD", "city": "Seattle", "state": "WA", "latitude": "47.60983582", "longitude": "-122.334797", "reservable": "1", "price": "100", "place_type": "Entire home/apt", "review_average": "4.4", "number_of_reviews": "33", "saved": "0"}
{"id": "248", "host_type": "normal", "title": "Downtown H2O View Hi Rise 25th Fl#3", "city": "Seattle", "state": "WA", "latitude": "47.61254733", "longitude": "-122.3333306", "reservable": "1", "price": "110", "place_type": "Entire home/apt", "review_average": "1.78", "number_of_reviews": "18", "saved": "1"}
{"id": "249", "host_type": "normal", "title": "Amazing Downtown Views!", "city": "Seattle", "state": "WA", "latitude": "47.61275933", "longitude": "-122.3324432", "reservable": "1", "price": "129", "place_type": "Entire home/apt", "review_average": "2.06", "number_of_reviews": "32", "saved": "0"}
{"id": "250", "host_type": "normal", "title": "BRAND NEW 98 walkscore H20 views!!", "city": "Seattle", "state": "WA", "latitude": "47.6125485", "longitude": "-122.3316295", "reservable": "1", "price": "89", "place_type": "Entire home/apt", "review_average": "4.31", "number_of_reviews": "3", "saved": "0"}
{"id": "251", "host_type": "normal", "title": "Gorgeous Downtown/Convention Condo", "city": "Seattle", "state": "WA", "latitude": "47.61312538", "longitude": "-122.3307178", "reservable": "1", "price": "175", "place_type": "Entire home/apt", "review_average": "1.64", "number_of_reviews": "37", "saved": "0"}
{"id": "252", "host_type": "normal", "title": "Downtown Seattle Pike Place Market", "city": "Seattle", "state": "WA", "latitude": "47.60933289", "longitude": "-122.3354745", "reservable": "1", "price": "135", "place_type": "Entire home/apt", "review_average": "1.06", "number_of_reviews": "74", "saved": "1"}
{"id": "253", "host_type": "super", "title": "Nice 2BD/2BA Downtown & Conv Center", "city": "Seattle", "state": "WA", "latitude": "47.61306311", "longitude": "-122.3306518", "reservable": "1", "price": "225", "place_type": "Entire home/apt", "review_average": "0.3", "number_of_reviews": "18", "saved": "0"}
{"id": "254", "host_type": "normal", "title": "View 1bd Luxury Downtown Hi Rise#2", "city": "Seattle", "state": "WA", "latitude": "47.61206693", "longitude": "-122.3332126", "reservable": "1", "price": "110", "place_type": "Entire home/apt", "review_average": "1.81", "number_of_reviews": "10", "saved": "0"}
{"id": "255", "host_type": "normal", "title": "P2 Cosmo living: Winter promo", "city": "Seattle", "state": "WA", "latitude": "47.6109654", "longitude": "-122.3290725", "reservable": "1", "price": "151", "place_type": "Entire home/apt", "review_average": "3.75", "number_of_reviews": "54", "saved": "0"}
{"id": "256", "host_type": "normal", "title": "2 Bedroom, 2 Bath, Downtown Seattle", "city": "Seattle", "state": "WA", "latitude": "47.61317623", "longitude": "-122.329084", "reservable": "1", "price": "175", "place_type": "Entire home/apt", "review_average": "2.99", "number_of_reviews": "27", "saved": "1"}
{"id": "257", "host_type": "normal", "title": "Comfy Studio, Downtown, Affordable", "city": "Seattle", "state": "WA", "latitude": "47.61263327", "longitude": "-122.329442", "reservable": "1", "price": "115", "place_type": "Entire home/apt", "review_average": "3.83", "number_of_reviews": "9", "saved": "0"}
{"id": "258", "host_type": "normal", "title": "Beautiful Modern Downtwn/Convention", "city": "Seattle", "state": "WA", "latitude": "47.61132764", "longitude": "-122.3306001", "reservable": "1", "price": "185", "place_type": "Entire home/apt", "review_average": "2.97", "number_of_reviews": "4", "saved": "0"}
{"id": "259", "host_type": "normal", "title": "Large Downtown 2 Bedroom Condo", "city": "Seattle", "state": "WA", "latitude": "47.61136874", "longitude": "-122.3288525", "reservable": "1", "price": "175", "place_type": "Entire home/apt", "review_average": "1.23", "number_of_reviews": "18", "saved": "0"}
{"id": "260", "host_type": "normal", "title": "Studio in the BEST location!", "city": "Seattle", "state": "WA", "latitude": "47.60953835", "longitude": "-122.3301785", "reservable": "1", "price": "75", "place_type": "Entire home/apt", "review_average": "1.37", "number_of_reviews": "43", "saved": "1"}
{"id": "261", "host_type": "normal", "title": "In the Heart of Seattle", "city": "Seattle", "state": "WA", "latitude": "47.61089995", "longitude": "-122.3252088", "reservable": "1", "price": "87", "place_type": "Private room", "review_average": "3.82", "number_of_reviews": "71", "saved": "0"}
{"id": "262", "host_type": "normal", "title": "Urban Capitol Hill Retreat", "city": "Seattle", "state": "WA", "latitude": "47.61317414", "longitude": "-122.3244904", "reservable": "1", "price": "100", "place_type": "Private room", "review_average": "0.02", "number_of_reviews": "6", "saved": "0"}
{"id": "263", "host_type": "normal", "title": "Light & Modern Downtown Conv Ctr ", "city": "Seattle", "state": "WA", "latitude": "47.61245626", "longitude": "-122.3301414", "reservable": "1", "price": "129", "place_type": "Entire home/apt", "review_average": "0.68", "number_of_reviews": "154", "saved": "0"}
{"id": "264", "host_type": "normal", "title": "Shared central studio, real bed", "city": "Seattle", "state": "WA", "latitude": "47.60841879", "longitude": "-122.3242005", "reservable": "1", "price": "85", "place_type": "Shared room", "review_average": "0.6", "number_of_reviews": "16", "saved": "1"}
{"id": "265", "host_type": "normal", "title": "Room with a View - IBD Penthouse", "city": "Seattle", "state": "WA", "latitude": "47.61172003", "longitude": "-122.3304252", "reservable": "1", "price": "195", "place_type": "Entire home/apt", "review_average": "2", "number_of_reviews": "14", "saved": "0"}
{"id": "266", "host_type": "normal", "title": "Bohemian Studio Near Downtown", "city": "Seattle", "state": "WA", "latitude": "47.60795126", "longitude": "-122.3282375", "reservable": "1", "price": "100", "place_type": "Entire home/apt", "review_average": "1.56", "number_of_reviews": "45", "saved": "0"}
{"id": "267", "host_type": "normal", "title": "P3 Throwback w/ style: Winter promo", "city": "Seattle", "state": "WA", "latitude": "47.6118662", "longitude": "-122.328552", "reservable": "1", "price": "121", "place_type": "Entire home/apt", "review_average": "0.11", "number_of_reviews": "66", "saved": "0"}
{"id": "268", "host_type": "normal", "title": "Serene&Central, 1BR&Pullout&Parking", "city": "Seattle", "state": "WA", "latitude": "47.6131384", "longitude": "-122.3251616", "reservable": "1", "price": "120", "place_type": "Entire home/apt", "review_average": "2.67", "number_of_reviews": "26", "saved": "1"}
{"id": "269", "host_type": "super", "title": "Downtown 1BR, Close to everything", "city": "Seattle", "state": "WA", "latitude": "47.61145049", "longitude": "-122.331084", "reservable": "1", "price": "110", "place_type": "Entire home/apt", "review_average": "2.92", "number_of_reviews": "53", "saved": "0"}
{"id": "270", "host_type": "normal", "title": "2BD, 1.5 Bath View Penthouse", "city": "Seattle", "state": "WA", "latitude": "47.61246835", "longitude": "-122.3300531", "reservable": "1", "price": "215", "place_type": "Entire home/apt", "review_average": "2.85", "number_of_reviews": "12", "saved": "0"}
{"id": "271", "host_type": "normal", "title": "The Nest in the Heart of the City", "city": "Seattle", "state": "WA", "latitude": "47.61148112", "longitude": "-122.3291211", "reservable": "1", "price": "175", "place_type": "Entire home/apt", "review_average": "2.75", "number_of_reviews": "75", "saved": "0"}
{"id": "272", "host_type": "super", "title": "Mt. Rainier view Pike Street", "city": "Seattle", "state": "WA", "latitude": "47.61365054", "longitude": "-122.3210146", "reservable": "1", "price": "120", "place_type": "Entire home/apt", "review_average": "4.81", "number_of_reviews": "36", "saved": "1"}
{"id": "273", "host_type": "normal", "title": "P4 Metro living: Winter promo", "city": "Seattle", "state": "WA", "latitude": "47.61259702", "longitude": "-122.3298757", "reservable": "1", "price": "151", "place_type": "Entire home/apt", "review_average": "0.42", "number_of_reviews": "39", "saved": "0"}
{"id": "274", "host_type": "normal", "title": "Bright&Sweet next to Convention Ctr", "city": "Seattle", "state": "WA", "latitude": "47.61288549", "longitude": "-122.3292414", "reservable": "1", "price": "175", "place_type": "Entire home/apt", "review_average": "2.19", "number_of_reviews": "21", "saved": "0"}
{"id": "275", "host_type": "normal", "title": "Downtown, 1BD, close to everything", "city": "Seattle", "state": "WA", "latitude": "47.61158121", "longitude": "-122.3293835", "reservable": "1", "price": "140", "place_type": "Entire home/apt", "review_average": "0.98", "number_of_reviews": "3", "saved": "0"}
{"id": "276", "host_type": "normal", "title": "Explore Downtown Seattle, 1BD", "city": "Seattle", "state": "WA", "latitude": "47.61143729", "longitude": "-122.3287667", "reservable": "1", "price": "140", "place_type": "Entire home/apt", "review_average": "4.44", "number_of_reviews": "8", "saved": "1"}
{"id": "277", "host_type": "normal", "title": "2BR Downtown Penthouse Condo", "city": "Seattle", "state": "WA", "latitude": "47.61168312", "longitude": "-122.3287378", "reservable": "1", "price": "179", "place_type": "Entire home/apt", "review_average": "4.77", "number_of_reviews": "57", "saved": "0"}
{"id": "278", "host_type": "normal", "title": "Midcentury Studio Close to Downtown", "city": "Seattle", "state": "WA", "latitude": "47.61041858", "longitude": "-122.3254524", "reservable": "1", "price": "120", "place_type": "Entire home/apt", "review_average": "2.91", "number_of_reviews": "1", "saved": "0"}
{"id": "279", "host_type": "normal", "title": "Modern 2BR/2BA By ConventionCenter", "city": "Seattle", "state": "WA", "latitude": "47.61169622", "longitude": "-122.3292941", "reservable": "1", "price": "245", "place_type": "Entire home/apt", "review_average": "3.1", "number_of_reviews": "18", "saved": "0"}
{"id": "280", "host_type": "normal", "title": "Modern Studio in Capitol/First Hill", "city": "Seattle", "state": "WA", "latitude": "47.6071263", "longitude": "-122.320032", "reservable": "1", "price": "145", "place_type": "Entire home/apt", "review_average": "1.42", "number_of_reviews": "11", "saved": "1"}
{"id": "281", "host_type": "normal", "title": "\"1898\" a FirstHill Victorian 3bdrm", "city": "Seattle", "state": "WA", "latitude": "47.60327559", "longitude": "-122.3203899", "reservable": "1", "price": "165", "place_type": "Entire home/apt", "review_average": "4.58", "number_of_reviews": "5", "saved": "0"}
{"id": "282", "host_type": "normal", "title": "Seattle Downtown Studio", "city": "Seattle", "state": "WA", "latitude": "47.6022024", "longitude": "-122.3350628", "reservable": "1", "price": "95", "place_type": "Entire home/apt", "review_average": "2.55", "number_of_reviews": "11", "saved": "0"}
{"id": "283", "host_type": "normal", "title": "2 BR townhouse in Morgan Junction", "city": "Seattle", "state": "WA", "latitude": "47.54593207", "longitude": "-122.3826213", "reservable": "1", "price": "153", "place_type": "Entire home/apt", "review_average": "1.96", "number_of_reviews": "8", "saved": "0"}
{"id": "284", "host_type": "normal", "title": "The Decisive Moment Garden Studio", "city": "Seattle", "state": "WA", "latitude": "47.52920009", "longitude": "-122.38564", "reservable": "1", "price": "85", "place_type": "Entire home/apt", "review_average": "0.23", "number_of_reviews": "9", "saved": "1"}
{"id": "285", "host_type": "normal", "title": "Spacious Studio Near Lincoln Park", "city": "Seattle", "state": "WA", "latitude": "47.53570065", "longitude": "-122.3863124", "reservable": "1", "price": "80", "place_type": "Entire home/apt", "review_average": "1.05", "number_of_reviews": "92", "saved": "0"}
{"id": "286", "host_type": "super", "title": "Cozy West Seattle Studio cottage", "city": "Seattle", "state": "WA", "latitude": "47.51286492", "longitude": "-122.3790334", "reservable": "1", "price": "100", "place_type": "Entire home/apt", "review_average": "1.22", "number_of_reviews": "11", "saved": "0"}
{"id": "287", "host_type": "normal", "title": "VACATION HOUSE WEST SEATTLE ", "city": "Seattle", "state": "WA", "latitude": "47.50508834", "longitude": "-122.3782388", "reservable": "1", "price": "200", "place_type": "Entire home/apt", "review_average": "4.69", "number_of_reviews": "29", "saved": "0"}
{"id": "288", "host_type": "super", "title": "Alki Beach with Stunning Views", "city": "Seattle", "state": "WA", "latitude": "47.57189115", "longitude": "-122.4073906", "reservable": "1", "price": "100", "place_type": "Entire home/apt", "review_average": "4.01", "number_of_reviews": "27", "saved": "1"}
{"id": "289", "host_type": "normal", "title": "Alki Beach Bungalow-1 Blk to Beach!", "city": "Seattle", "state": "WA", "latitude": "47.57450452", "longitude": "-122.4129798", "reservable": "1", "price": "249", "place_type": "Entire home/apt", "review_average": "2.8", "number_of_reviews": "8", "saved": "0"}
{"id": "290", "host_type": "normal", "title": "Alki Beach, Mid-Century Room", "city": "Seattle", "state": "WA", "latitude": "47.57865215", "longitude": "-122.4051882", "reservable": "1", "price": "100", "place_type": "Private room", "review_average": "3.51", "number_of_reviews": "3", "saved": "0"}
{"id": "291", "host_type": "super", "title": "Romantic Alki Beach Cottage", "city": "Seattle", "state": "WA", "latitude": "47.57613116", "longitude": "-122.4122347", "reservable": "1", "price": "130", "place_type": "Entire home/apt", "review_average": "2.18", "number_of_reviews": "54", "saved": "0"}
{"id": "292", "host_type": "normal", "title": "Waterfront townhome in Seattle", "city": "Seattle", "state": "WA", "latitude": "47.56499678", "longitude": "-122.4064296", "reservable": "1", "price": "250", "place_type": "Entire home/apt", "review_average": "4.14", "number_of_reviews": "31", "saved": "1"}
{"id": "293", "host_type": "super", "title": "Apartment Ocean and Mountain Views", "city": "Seattle", "state": "WA", "latitude": "47.58675627", "longitude": "-122.3919824", "reservable": "1", "price": "195", "place_type": "Entire home/apt", "review_average": "0.45", "number_of_reviews": "33", "saved": "0"}
{"id": "294", "host_type": "normal", "title": "Charming Admiral District Cottage", "city": "Seattle", "state": "WA", "latitude": "47.58044918", "longitude": "-122.3968706", "reservable": "1", "price": "100", "place_type": "Entire home/apt", "review_average": "2.44", "number_of_reviews": "18", "saved": "0"}
{"id": "295", "host_type": "super", "title": "Yurt Glamping in an Urban Oasis", "city": "Seattle", "state": "WA", "latitude": "47.58403666", "longitude": "-122.3866704", "reservable": "1", "price": "100", "place_type": "Entire home/apt", "review_average": "4.14", "number_of_reviews": "25", "saved": "0"}
{"id": "296", "host_type": "normal", "title": "Coveted West Seattle Neighborhood", "city": "Seattle", "state": "WA", "latitude": "47.57290027", "longitude": "-122.3859377", "reservable": "1", "price": "225", "place_type": "Entire home/apt", "review_average": "3.32", "number_of_reviews": "3", "saved": "1"}
{"id": "297", "host_type": "normal", "title": "Classic Tudor - Quiet & Convenient", "city": "West Seattle", "state": "WA", "latitude": "47.57190255", "longitude": "-122.3789319", "reservable": "1", "price": "90", "place_type": "Private room", "review_average": "0.99", "number_of_reviews": "20", "saved": "0"}
{"id": "298", "host_type": "normal", "title": "Modern Beach Studio with 180 VIEW", "city": "Seattle", "state": "WA", "latitude": "47.58274073", "longitude": "-122.3980841", "reservable": "1", "price": "99", "place_type": "Entire home/apt", "review_average": "0.82", "number_of_reviews": "105", "saved": "0"}
{"id": "299", "host_type": "super", "title": "Skylights, Privacy & Convenience", "city": "Seattle", "state": "WA", "latitude": "47.57658172", "longitude": "-122.3886758", "reservable": "1", "price": "89", "place_type": "Entire home/apt", "review_average": "3.76", "number_of_reviews": "15", "saved": "0"}
{"id": "300", "host_type": "super", "title": "Quiet Studio has a Spectacular view", "city": "Seattle", "state": "WA", "latitude": "47.58495099", "longitude": "-122.3816172", "reservable": "1", "price": "90", "place_type": "Private room", "review_average": "4.55", "number_of_reviews": "23", "saved": "1"}
{"id": "301", "host_type": "super", "title": "1 Bedroom Studio with a serene view", "city": "Seattle", "state": "WA", "latitude": "47.58273995", "longitude": "-122.3810727", "reservable": "1", "price": "90", "place_type": "Entire home/apt", "review_average": "3.45", "number_of_reviews": "34", "saved": "0"}
{"id": "302", "host_type": "normal", "title": "\"THE 5-STAR HOUSE\"", "city": "Seattle", "state": "WA", "latitude": "47.69989837", "longitude": "-122.3661418", "reservable": "1", "price": "65", "place_type": "Private room", "review_average": "1.25", "number_of_reviews": "22", "saved": "0"}
{"id": "303", "host_type": "super", "title": "Guest Room -Cute North Seattle Home", "city": "Seattle", "state": "WA", "latitude": "47.70006051", "longitude": "-122.3743716", "reservable": "1", "price": "69", "place_type": "Private room", "review_average": "0.88", "number_of_reviews": "17", "saved": "0"}
{"id": "304", "host_type": "normal", "title": "Delightful Spacious Apartment", "city": "Seattle", "state": "WA", "latitude": "47.69335529", "longitude": "-122.3731757", "reservable": "1", "price": "100", "place_type": "Entire home/apt", "review_average": "1.28", "number_of_reviews": "80", "saved": "1"}
{"id": "305", "host_type": "normal", "title": "\"THE 5-STAR HOUSE\"", "city": "Seattle", "state": "WA", "latitude": "47.70155129", "longitude": "-122.3665113", "reservable": "1", "price": "65", "place_type": "Private room", "review_average": "3.05", "number_of_reviews": "37", "saved": "0"}
{"id": "306", "host_type": "super", "title": "The Coolest Tangerine Dream MIL! ", "city": "Seattle", "state": "WA", "latitude": "47.55670065", "longitude": "-122.3849735", "reservable": "1", "price": "125", "place_type": "Entire home/apt", "review_average": "4.51", "number_of_reviews": "14", "saved": "0"}
{"id": "307", "host_type": "super", "title": "The Adorable Sweet Orange Craftsman", "city": "Seattle", "state": "WA", "latitude": "47.55538926", "longitude": "-122.3847386", "reservable": "1", "price": "165", "place_type": "Entire home/apt", "review_average": "3.35", "number_of_reviews": "26", "saved": "0"}
{"id": "308", "host_type": "normal", "title": "Storybook BnB - Private Studio", "city": "Seattle", "state": "WA", "latitude": "47.55335676", "longitude": "-122.3790013", "reservable": "1", "price": "85", "place_type": "Entire home/apt", "review_average": "2.24", "number_of_reviews": "6", "saved": "1"}
{"id": "309", "host_type": "super", "title": "Heart of W Seattle w/ Skyline View!", "city": "Seattle", "state": "WA", "latitude": "47.55925585", "longitude": "-122.3845558", "reservable": "1", "price": "136", "place_type": "Entire home/apt", "review_average": "4.43", "number_of_reviews": "12", "saved": "0"}
{"id": "310", "host_type": "normal", "title": "Modern West Seattle Cottage", "city": "Seattle", "state": "WA", "latitude": "47.56639268", "longitude": "-122.3781462", "reservable": "1", "price": "139", "place_type": "Entire home/apt", "review_average": "3.92", "number_of_reviews": "17", "saved": "0"}
{"id": "311", "host_type": "normal", "title": "Contemporary New Townhome/House", "city": "Seattle", "state": "WA", "latitude": "47.56724121", "longitude": "-122.3863867", "reservable": "1", "price": "215", "place_type": "Entire home/apt", "review_average": "4.81", "number_of_reviews": "2", "saved": "0"}
{"id": "312", "host_type": "normal", "title": "Charming West Seattle apartment ", "city": "Seattle", "state": "WA", "latitude": "47.56412465", "longitude": "-122.3785073", "reservable": "1", "price": "99", "place_type": "Entire home/apt", "review_average": "4.13", "number_of_reviews": "26", "saved": "1"}
{"id": "313", "host_type": "normal", "title": "West Seattle Mid-Century Modern", "city": "Seattle", "state": "WA", "latitude": "47.56272304", "longitude": "-122.3952384", "reservable": "1", "price": "165", "place_type": "Entire home/apt", "review_average": "3.6", "number_of_reviews": "4", "saved": "0"}
{"id": "314", "host_type": "normal", "title": "Modern home in West Seattle!", "city": "Seattle", "state": "WA", "latitude": "47.56523793", "longitude": "-122.3872351", "reservable": "1", "price": "150", "place_type": "Entire home/apt", "review_average": "0.15", "number_of_reviews": "5", "saved": "0"}
{"id": "315", "host_type": "normal", "title": "Spacious West Seattle Cottage", "city": "Seattle", "state": "WA", "latitude": "47.56460285", "longitude": "-122.3770466", "reservable": "1", "price": "249", "place_type": "Entire home/apt", "review_average": "4.12", "number_of_reviews": "2", "saved": "0"}
{"id": "316", "host_type": "normal", "title": "Vibrant Two-Bedroom Apartment", "city": "Seattle", "state": "WA", "latitude": "47.56618454", "longitude": "-122.3790076", "reservable": "1", "price": "129", "place_type": "Entire home/apt", "review_average": "4.56", "number_of_reviews": "14", "saved": "1"}
{"id": "317", "host_type": "normal", "title": "*Beautiful Views West Seattle Home*", "city": "Seattle", "state": "WA", "latitude": "47.56164625", "longitude": "-122.3970726", "reservable": "1", "price": "250", "place_type": "Entire home/apt", "review_average": "3.5", "number_of_reviews": "1", "saved": "0"}
{"id": "318", "host_type": "normal", "title": "West Seattle Home near Junction", "city": "Seattle", "state": "WA", "latitude": "47.56280118", "longitude": "-122.3870543", "reservable": "1", "price": "99", "place_type": "Private room", "review_average": "3.79", "number_of_reviews": "8", "saved": "0"}
{"id": "319", "host_type": "super", "title": "Rooftop Room with a View !", "city": "Seattle", "state": "WA", "latitude": "47.63972336", "longitude": "-122.3764221", "reservable": "1", "price": "53", "place_type": "Private room", "review_average": "3.39", "number_of_reviews": "26", "saved": "0"}
{"id": "320", "host_type": "super", "title": "Modern Oasis in Magnolia", "city": "Seattle", "state": "WA", "latitude": "47.63920028", "longitude": "-122.3866156", "reservable": "1", "price": "150", "place_type": "Entire home/apt", "review_average": "3.35", "number_of_reviews": "12", "saved": "1"}
{"id": "321", "host_type": "super", "title": "Seattle Studio-Private Kitchen&Bath", "city": "Seattle", "state": "WA", "latitude": "47.55427231", "longitude": "-122.3126487", "reservable": "1", "price": "65", "place_type": "Entire home/apt", "review_average": "1.51", "number_of_reviews": "33", "saved": "0"}
